[{"name":"les Escaldes","latitude":"42.50729","longitude":"1.53414"},{"name":"Andorra la Vella","latitude":"42.50779","longitude":"1.52109"},{"name":"Umm Al Quwain City","latitude":"25.56473","longitude":"55.55517"},{"name":"Ras Al Khaimah City","latitude":"25.78953","longitude":"55.9432"},{"name":"Zayed City","latitude":"23.65416","longitude":"53.70522"},{"name":"Khawr Fakkān","latitude":"25.33132","longitude":"56.34199"},{"name":"Dubai","latitude":"25.07725","longitude":"55.30927"},{"name":"Dibba Al-Fujairah","latitude":"25.59246","longitude":"56.26176"},{"name":"Dibba Al-Hisn","latitude":"25.61955","longitude":"56.27291"},{"name":"Sharjah","latitude":"25.33737","longitude":"55.41206"},{"name":"Ar Ruways","latitude":"24.11028","longitude":"52.73056"},{"name":"Al Fujairah City","latitude":"25.11641","longitude":"56.34141"},{"name":"Al Ain City","latitude":"24.19167","longitude":"55.76056"},{"name":"Ajman City","latitude":"25.40177","longitude":"55.47878"},{"name":"Adh Dhayd","latitude":"25.28812","longitude":"55.88157"},{"name":"Abu Dhabi","latitude":"24.45118","longitude":"54.39696"},{"name":"Khalifah A City","latitude":"24.42588","longitude":"54.605"},{"name":"Bani Yas City","latitude":"24.30978","longitude":"54.62944"},{"name":"Musaffah","latitude":"24.35893","longitude":"54.48267"},{"name":"Al Shamkhah City","latitude":"24.39268","longitude":"54.70779"},{"name":"Reef Al Fujairah City","latitude":"25.14479","longitude":"56.24764"},{"name":"Zaranj","latitude":"30.95962","longitude":"61.86037"},{"name":"Bāzār-e Yakāwlang","latitude":"34.73525","longitude":"66.97379"},{"name":"Taloqan","latitude":"36.73605","longitude":"69.53451"},{"name":"Shīnḏanḏ","latitude":"33.30294","longitude":"62.1474"},{"name":"Shibirghān","latitude":"36.66757","longitude":"65.7529"},{"name":"Shahrak","latitude":"34.10737","longitude":"64.3052"},{"name":"Sar-e Pul","latitude":"36.21544","longitude":"65.93249"},{"name":"Sang-e Chārak","latitude":"35.84972","longitude":"66.43694"},{"name":"Aībak","latitude":"36.26468","longitude":"68.01551"},{"name":"Rustāq","latitude":"37.12604","longitude":"69.83045"},{"name":"Qarqīn","latitude":"37.41853","longitude":"66.04358"},{"name":"Qarāwul","latitude":"37.21959","longitude":"68.7802"},{"name":"Pul-e Khumrī","latitude":"35.94458","longitude":"68.71512"},{"name":"Paghmān","latitude":"34.58787","longitude":"68.95091"},{"name":"Nahrīn","latitude":"36.0649","longitude":"69.13343"},{"name":"Maymana","latitude":"35.92139","longitude":"64.78361"},{"name":"Mehtar Lām","latitude":"34.67139","longitude":"70.20944"},{"name":"Mazār-e Sharīf","latitude":"36.70904","longitude":"67.11087"},{"name":"Lashkar Gāh","latitude":"31.59382","longitude":"64.37161"},{"name":"Kushk","latitude":"33.29565","longitude":"61.95221"},{"name":"Kunduz","latitude":"36.72895","longitude":"68.857"},{"name":"Khōst","latitude":"33.33951","longitude":"69.92041"},{"name":"Khulm","latitude":"36.69736","longitude":"67.69826"},{"name":"Khāsh","latitude":"31.52919","longitude":"62.79055"},{"name":"Khān Neshīn","latitude":"30.5488","longitude":"63.7888"},{"name":"Khanabad","latitude":"36.68304","longitude":"69.11279"},{"name":"Karukh","latitude":"34.48108","longitude":"62.5863"},{"name":"Kandahār","latitude":"31.61332","longitude":"65.71013"},{"name":"Kabul","latitude":"34.52813","longitude":"69.17233"},{"name":"Jalālābād","latitude":"34.42647","longitude":"70.45153"},{"name":"Jabal os Saraj","latitude":"35.11833","longitude":"69.23778"},{"name":"Herāt","latitude":"34.34817","longitude":"62.19967"},{"name":"Ghormach","latitude":"35.73062","longitude":"63.78264"},{"name":"Ghazni","latitude":"33.55391","longitude":"68.42096"},{"name":"Gereshk","latitude":"31.82089","longitude":"64.57005"},{"name":"Gardez","latitude":"33.59744","longitude":"69.22592"},{"name":"Fayzabad","latitude":"37.11664","longitude":"70.58002"},{"name":"Farah","latitude":"32.37451","longitude":"62.11638"},{"name":"Eslam Qaleh","latitude":"34.66667","longitude":"61.06667"},{"name":"Charikar","latitude":"35.01361","longitude":"69.17139"},{"name":"Baraki Barak","latitude":"33.96744","longitude":"68.9492"},{"name":"Bāmyān","latitude":"34.82156","longitude":"67.82734"},{"name":"Balkh","latitude":"36.75635","longitude":"66.8972"},{"name":"Baghlān","latitude":"36.13068","longitude":"68.70829"},{"name":"Ārt Khwājah","latitude":"37.08571","longitude":"69.47958"},{"name":"Āsmār","latitude":"35.03333","longitude":"71.35809"},{"name":"Asadābād","latitude":"34.87311","longitude":"71.14697"},{"name":"Andkhōy","latitude":"36.95293","longitude":"65.12376"},{"name":"Bāzārak","latitude":"35.31292","longitude":"69.51519"},{"name":"Markaz-e Woluswalī-ye Āchīn","latitude":"34.12583","longitude":"70.70778"},{"name":"Saint John’s","latitude":"17.12096","longitude":"-61.84329"},{"name":"The Valley","latitude":"18.21704","longitude":"-63.05783"},{"name":"Sarandë","latitude":"39.87534","longitude":"20.00477"},{"name":"Pogradec","latitude":"40.9025","longitude":"20.6525"},{"name":"Kukës","latitude":"42.07694","longitude":"20.42194"},{"name":"Korçë","latitude":"40.61861","longitude":"20.78083"},{"name":"Gjirokastër","latitude":"40.07583","longitude":"20.13889"},{"name":"Elbasan","latitude":"41.1125","longitude":"20.08222"},{"name":"Burrel","latitude":"41.61028","longitude":"20.00889"},{"name":"Vlorë","latitude":"40.4686","longitude":"19.48318"},{"name":"Tirana","latitude":"41.3275","longitude":"19.81889"},{"name":"Shkodër","latitude":"42.06828","longitude":"19.51258"},{"name":"Patos Fshat","latitude":"40.64278","longitude":"19.65083"},{"name":"Patos","latitude":"40.68333","longitude":"19.61944"},{"name":"Lushnjë","latitude":"40.94194","longitude":"19.705"},{"name":"Lezhë","latitude":"41.78361","longitude":"19.64361"},{"name":"Laç","latitude":"41.63556","longitude":"19.71306"},{"name":"Krujë","latitude":"41.50917","longitude":"19.79278"},{"name":"Kavajë","latitude":"41.18556","longitude":"19.55694"},{"name":"Fier-Çifçi","latitude":"40.71667","longitude":"19.56667"},{"name":"Fier","latitude":"40.72389","longitude":"19.55611"},{"name":"Durrës","latitude":"41.32355","longitude":"19.45469"},{"name":"Berat","latitude":"40.70583","longitude":"19.95222"},{"name":"Kapan","latitude":"39.20755","longitude":"46.40576"},{"name":"Goris","latitude":"39.51111","longitude":"46.34168"},{"name":"Hats’avan","latitude":"39.46405","longitude":"45.97047"},{"name":"Artashat","latitude":"39.96144","longitude":"44.54447"},{"name":"Ararat","latitude":"39.83069","longitude":"44.70569"},{"name":"Yerevan","latitude":"40.18111","longitude":"44.51361"},{"name":"Vagharshapat","latitude":"40.16557","longitude":"44.29462"},{"name":"Stepanavan","latitude":"41.00995","longitude":"44.38531"},{"name":"Spitak","latitude":"40.83221","longitude":"44.26731"},{"name":"Sevan","latitude":"40.5473","longitude":"44.94171"},{"name":"Masis","latitude":"40.06572","longitude":"44.41913"},{"name":"Vanadzor","latitude":"40.80456","longitude":"44.4939"},{"name":"Gavar","latitude":"40.35398","longitude":"45.12386"},{"name":"Hrazdan","latitude":"40.49748","longitude":"44.7662"},{"name":"Armavir","latitude":"40.15446","longitude":"44.03815"},{"name":"Gyumri","latitude":"40.7942","longitude":"43.84528"},{"name":"Ch’arents’avan","latitude":"40.40289","longitude":"44.64447"},{"name":"Ashtarak","latitude":"40.2991","longitude":"44.36204"},{"name":"Abovyan","latitude":"40.27368","longitude":"44.63348"},{"name":"Saurimo","latitude":"-9.66078","longitude":"20.39155"},{"name":"Lucapa","latitude":"-8.41915","longitude":"20.74466"},{"name":"Dundo","latitude":"-7.36643","longitude":"20.81557"},{"name":"Cassanguidi","latitude":"-7.48367","longitude":"21.30339"},{"name":"Lumbala","latitude":"-14.10165","longitude":"21.43531"},{"name":"Luau","latitude":"-10.70727","longitude":"22.22466"},{"name":"Cazombo","latitude":"-11.89355","longitude":"22.9024"},{"name":"Nzagi","latitude":"-8.38549","longitude":"15.30126"},{"name":"Uíge","latitude":"-7.60874","longitude":"15.06131"},{"name":"Tombôco","latitude":"-6.80517","longitude":"13.33017"},{"name":"Soyo","latitude":"-6.1349","longitude":"12.36894"},{"name":"Songo","latitude":"-7.35207","longitude":"14.84629"},{"name":"Sanza Pombo","latitude":"-7.31473","longitude":"16.0024"},{"name":"Ambrizette","latitude":"-7.23116","longitude":"12.8666"},{"name":"Negage","latitude":"-7.75938","longitude":"15.2722"},{"name":"N'dalatando","latitude":"-9.29782","longitude":"14.91162"},{"name":"Mussende","latitude":"-9.95","longitude":"14.8"},{"name":"Mbanza Kongo","latitude":"-6.26667","longitude":"14.23833"},{"name":"Maquela do Zombo","latitude":"-6.05716","longitude":"15.10971"},{"name":"Malanje","latitude":"-9.54015","longitude":"16.34096"},{"name":"Lucala","latitude":"-9.27268","longitude":"15.25206"},{"name":"Luanda","latitude":"-8.83682","longitude":"13.23432"},{"name":"Golungo Alto","latitude":"-9.13333","longitude":"14.76667"},{"name":"Dondo","latitude":"-9.68456","longitude":"14.42788"},{"name":"Dondo","latitude":"-9.05","longitude":"15.31667"},{"name":"Cuímba","latitude":"-6.12085","longitude":"14.62086"},{"name":"Cuango-Luzamba","latitude":"-9.14583","longitude":"18.04453"},{"name":"Cazombo","latitude":"-8.73204","longitude":"15.37124"},{"name":"Caxito","latitude":"-8.57848","longitude":"13.66425"},{"name":"Cangandala","latitude":"-9.78333","longitude":"16.43333"},{"name":"Camabatela","latitude":"-8.18812","longitude":"15.37495"},{"name":"Cacuso","latitude":"-9.42102","longitude":"15.74668"},{"name":"Cabinda","latitude":"-5.56717","longitude":"12.19787"},{"name":"Barra do Dande","latitude":"-8.47175","longitude":"13.37011"},{"name":"Bailundo","latitude":"-9.57499","longitude":"15.99442"},{"name":"Gama","latitude":"-8.5675","longitude":"13.47639"},{"name":"Xangongo","latitude":"-16.7444","longitude":"14.97494"},{"name":"Alto Hama","latitude":"-12.23333","longitude":"15.55"},{"name":"Ucuma","latitude":"-12.96121","longitude":"15.05958"},{"name":"Ucu Seles","latitude":"-11.41237","longitude":"14.30663"},{"name":"Tômbua","latitude":"-15.80394","longitude":"11.84485"},{"name":"Sumbe","latitude":"-11.20605","longitude":"13.84371"},{"name":"Quipungo","latitude":"-14.81909","longitude":"14.53504"},{"name":"Quibala","latitude":"-10.73366","longitude":"14.97995"},{"name":"Porto Amboim","latitude":"-10.73251","longitude":"13.76844"},{"name":"Ondjiva","latitude":"-17.06667","longitude":"15.73333"},{"name":"Nharêa","latitude":"-11.47512","longitude":"16.96496"},{"name":"Mossamedes","latitude":"-15.19611","longitude":"12.15222"},{"name":"Mungo","latitude":"-11.83268","longitude":"16.23613"},{"name":"Menongue","latitude":"-14.6585","longitude":"17.69099"},{"name":"Matala","latitude":"-14.73272","longitude":"15.03479"},{"name":"Luena","latitude":"-11.78333","longitude":"19.91667"},{"name":"Lubango","latitude":"-14.91717","longitude":"13.4925"},{"name":"Longonjo","latitude":"-12.90795","longitude":"15.24845"},{"name":"Londuimbali","latitude":"-12.23712","longitude":"15.31697"},{"name":"Lobito","latitude":"-12.3644","longitude":"13.53601"},{"name":"Cuito","latitude":"-12.38333","longitude":"16.93333"},{"name":"Catchiungo","latitude":"-12.56598","longitude":"16.22589"},{"name":"Huambo","latitude":"-12.77611","longitude":"15.73917"},{"name":"Ganda","latitude":"-13.01592","longitude":"14.63502"},{"name":"Gabela","latitude":"-10.85147","longitude":"14.37993"},{"name":"Dombe Grande","latitude":"-12.95167","longitude":"13.1025"},{"name":"Cuemba","latitude":"-12.15","longitude":"18.08333"},{"name":"Cubal","latitude":"-13.03865","longitude":"14.2455"},{"name":"Conda","latitude":"-11.10862","longitude":"14.33621"},{"name":"Chitembo","latitude":"-13.55","longitude":"16.63333"},{"name":"Chinguar","latitude":"-12.55708","longitude":"16.33805"},{"name":"Cela","latitude":"-11.42173","longitude":"15.12345"},{"name":"Catumbela","latitude":"-12.43002","longitude":"13.54677"},{"name":"Catabola","latitude":"-12.15","longitude":"17.28333"},{"name":"Capunda","latitude":"-11.13333","longitude":"14.46667"},{"name":"Cambundi Catembo","latitude":"-10.07531","longitude":"17.55058"},{"name":"Camacupa","latitude":"-12.01667","longitude":"17.48333"},{"name":"Caluquembe","latitude":"-13.86667","longitude":"14.43333"},{"name":"Calulo","latitude":"-10.00055","longitude":"14.89519"},{"name":"Caála","latitude":"-12.8525","longitude":"15.56056"},{"name":"Bocoio","latitude":"-12.47017","longitude":"14.13688"},{"name":"Benguela","latitude":"-12.57626","longitude":"13.40547"},{"name":"Balombo","latitude":"-12.35426","longitude":"14.77232"},{"name":"Baía Farta","latitude":"-12.60417","longitude":"13.19667"},{"name":"Andulo","latitude":"-11.48676","longitude":"16.69663"},{"name":"Cambundi","latitude":"-7.46856","longitude":"17.03769"},{"name":"Cafunfo","latitude":"-8.7672","longitude":"17.99572"},{"name":"Santa Clara","latitude":"-10.19156","longitude":"15.43408"},{"name":"Quissecula","latitude":"-11.39223","longitude":"15.09201"},{"name":"Cambundi","latitude":"-10.89481","longitude":"17.76402"},{"name":"Zárate","latitude":"-34.09814","longitude":"-59.02858"},{"name":"Colonia Wanda","latitude":"-25.97337","longitude":"-54.56304"},{"name":"Villa Ortúzar","latitude":"-34.57973","longitude":"-58.46829"},{"name":"Villa Ocampo","latitude":"-28.48689","longitude":"-59.35423"},{"name":"Villa Lugano","latitude":"-34.67907","longitude":"-58.47263"},{"name":"Villaguay","latitude":"-31.8653","longitude":"-59.02689"},{"name":"Villa Gesell","latitude":"-37.26394","longitude":"-56.97304"},{"name":"Villa de Mayo","latitude":"-34.5108","longitude":"-58.68059"},{"name":"Tortuguitas","latitude":"-34.47513","longitude":"-58.75367"},{"name":"Tigre","latitude":"-34.42603","longitude":"-58.57962"},{"name":"Tandil","latitude":"-37.32167","longitude":"-59.13316"},{"name":"San Vicente","latitude":"-26.61667","longitude":"-54.13333"},{"name":"Santo Tomé","latitude":"-28.54939","longitude":"-56.04077"},{"name":"Santos Lugares","latitude":"-34.60379","longitude":"-58.5461"},{"name":"Santa Elena","latitude":"-30.94432","longitude":"-59.78832"},{"name":"San Pedro","latitude":"-33.67918","longitude":"-59.66633"},{"name":"San Pedro","latitude":"-26.6218","longitude":"-54.10902"},{"name":"San Luis del Palmar","latitude":"-27.5079","longitude":"-58.55454"},{"name":"San Lorenzo","latitude":"-28.13306","longitude":"-58.76733"},{"name":"San Javier","latitude":"-30.57781","longitude":"-59.9317"},{"name":"San Isidro","latitude":"-34.4721","longitude":"-58.52708"},{"name":"Saladas","latitude":"-28.25384","longitude":"-58.62591"},{"name":"Retiro","latitude":"-34.58333","longitude":"-58.38333"},{"name":"Resistencia","latitude":"-27.46056","longitude":"-58.98389"},{"name":"Reconquista","latitude":"-29.15","longitude":"-59.65"},{"name":"Quilmes","latitude":"-34.72904","longitude":"-58.26374"},{"name":"Puerto Rico","latitude":"-26.8089","longitude":"-55.02147"},{"name":"Puerto Iguazú","latitude":"-25.59912","longitude":"-54.57355"},{"name":"Puerto Esperanza","latitude":"-26.02267","longitude":"-54.61356"},{"name":"Puerto Eldorado","latitude":"-26.40843","longitude":"-54.69463"},{"name":"Posadas","latitude":"-27.36708","longitude":"-55.89608"},{"name":"Pontevedra","latitude":"-34.74785","longitude":"-58.70072"},{"name":"Pirané","latitude":"-25.73271","longitude":"-59.10989"},{"name":"Pilar","latitude":"-34.45866","longitude":"-58.9142"},{"name":"Paso de los Libres","latitude":"-29.71251","longitude":"-57.08771"},{"name":"Oberá","latitude":"-27.48683","longitude":"-55.11994"},{"name":"Necochea","latitude":"-38.5545","longitude":"-58.73961"},{"name":"Muñiz","latitude":"-34.55622","longitude":"-58.70739"},{"name":"Morón","latitude":"-34.6509","longitude":"-58.61956"},{"name":"Monte Caseros","latitude":"-30.25359","longitude":"-57.63626"},{"name":"Montecarlo","latitude":"-26.56849","longitude":"-54.7579"},{"name":"Merlo","latitude":"-34.66627","longitude":"-58.72927"},{"name":"Mercedes","latitude":"-34.65145","longitude":"-59.43068"},{"name":"Mercedes","latitude":"-29.18416","longitude":"-58.07519"},{"name":"Haedo","latitude":"-34.64044","longitude":"-58.59274"},{"name":"Mar del Plata","latitude":"-38.00042","longitude":"-57.5562"},{"name":"Luján","latitude":"-34.57028","longitude":"-59.105"},{"name":"Los Polvorines","latitude":"-34.50316","longitude":"-58.70596"},{"name":"La Plata","latitude":"-34.92145","longitude":"-57.95453"},{"name":"La Paz","latitude":"-30.74179","longitude":"-59.64517"},{"name":"Jardín América","latitude":"-27.04346","longitude":"-55.22698"},{"name":"Hurlingham","latitude":"-34.5904","longitude":"-58.62904"},{"name":"Gualeguaychú","latitude":"-33.00937","longitude":"-58.51722"},{"name":"Gualeguay","latitude":"-33.14156","longitude":"-59.30966"},{"name":"Goya","latitude":"-29.13995","longitude":"-59.26343"},{"name":"Gobernador Virasora","latitude":"-28.05","longitude":"-56.03333"},{"name":"General Pacheco","latitude":"-34.45256","longitude":"-58.64312"},{"name":"General José de San Martín","latitude":"-26.53743","longitude":"-59.34158"},{"name":"Garupá","latitude":"-27.48315","longitude":"-55.82924"},{"name":"Formosa","latitude":"-26.18489","longitude":"-58.17313"},{"name":"Fontana","latitude":"-27.41813","longitude":"-59.02392"},{"name":"Federal","latitude":"-30.95465","longitude":"-58.78326"},{"name":"Esquina","latitude":"-30.01476","longitude":"-59.5289"},{"name":"El Soberbio","latitude":"-27.29662","longitude":"-54.19811"},{"name":"El Palomar","latitude":"-34.61771","longitude":"-58.60153"},{"name":"Don Torcuato","latitude":"-34.49459","longitude":"-58.62729"},{"name":"Dolores","latitude":"-36.31321","longitude":"-57.67918"},{"name":"Curuzú Cuatiá","latitude":"-29.79171","longitude":"-58.0546"},{"name":"Corrientes","latitude":"-27.46784","longitude":"-58.8344"},{"name":"Concordia","latitude":"-31.39296","longitude":"-58.02089"},{"name":"Concepción del Uruguay","latitude":"-32.48463","longitude":"-58.23217"},{"name":"Colegiales","latitude":"-34.57365","longitude":"-58.44924"},{"name":"Chajarí","latitude":"-30.75048","longitude":"-57.97962"},{"name":"Castelar","latitude":"-34.65183","longitude":"-58.63963"},{"name":"Campana","latitude":"-34.16327","longitude":"-58.95919"},{"name":"Buenos Aires","latitude":"-34.61315","longitude":"-58.37723"},{"name":"Boedo","latitude":"-34.63333","longitude":"-58.41667"},{"name":"Berazategui","latitude":"-34.76531","longitude":"-58.21278"},{"name":"Bella Vista","latitude":"-34.5651","longitude":"-58.69034"},{"name":"Belgrano","latitude":"-34.5627","longitude":"-58.45829"},{"name":"Barranqueras","latitude":"-27.48132","longitude":"-58.93925"},{"name":"Barracas","latitude":"-34.64966","longitude":"-58.38341"},{"name":"Balcarce","latitude":"-37.84616","longitude":"-58.25522"},{"name":"Azul","latitude":"-36.77698","longitude":"-59.85854"},{"name":"Avellaneda","latitude":"-29.11761","longitude":"-59.65834"},{"name":"Aristóbulo del Valle","latitude":"-27.09571","longitude":"-54.89344"},{"name":"Zapala","latitude":"-38.90056","longitude":"-70.06674"},{"name":"Yerba Buena","latitude":"-26.81667","longitude":"-65.31667"},{"name":"Villa Regina","latitude":"-39.09631","longitude":"-67.08374"},{"name":"Villa Paula de Sarmiento","latitude":"-31.4933","longitude":"-68.53838"},{"name":"Villa Nueva","latitude":"-32.43293","longitude":"-63.24763"},{"name":"Villa María","latitude":"-32.40751","longitude":"-63.24016"},{"name":"Villa Dolores","latitude":"-31.94585","longitude":"-65.18958"},{"name":"Villa Constitución","latitude":"-33.22778","longitude":"-60.3297"},{"name":"Villa Carlos Paz","latitude":"-31.42414","longitude":"-64.49778"},{"name":"Villa Ángela","latitude":"-27.57383","longitude":"-60.71526"},{"name":"Villa Allende","latitude":"-31.29368","longitude":"-64.2977"},{"name":"Viedma","latitude":"-40.81345","longitude":"-62.99668"},{"name":"Victoria","latitude":"-32.61841","longitude":"-60.15478"},{"name":"Vera","latitude":"-29.4593","longitude":"-60.21261"},{"name":"Venado Tuerto","latitude":"-33.74556","longitude":"-61.96885"},{"name":"Veinticinco de Mayo","latitude":"-35.4323","longitude":"-60.17271"},{"name":"Ushuaia","latitude":"-54.81084","longitude":"-68.31591"},{"name":"Unquillo","latitude":"-31.23717","longitude":"-64.31176"},{"name":"Tres Isletas","latitude":"-26.34067","longitude":"-60.43207"},{"name":"Tres Arroyos","latitude":"-38.37394","longitude":"-60.27978"},{"name":"Trelew","latitude":"-43.24895","longitude":"-65.30505"},{"name":"Termas de Río Hondo","latitude":"-27.49362","longitude":"-64.85972"},{"name":"Tartagal","latitude":"-22.51682","longitude":"-63.8056"},{"name":"Tafí Viejo","latitude":"-26.73201","longitude":"-65.25921"},{"name":"Sunchales","latitude":"-30.94404","longitude":"-61.56148"},{"name":"Santo Tomé","latitude":"-31.66274","longitude":"-60.7653"},{"name":"Santiago del Estero","latitude":"-27.79511","longitude":"-64.26149"},{"name":"Santa Rosa","latitude":"-36.61667","longitude":"-64.28333"},{"name":"Santa Lucía","latitude":"-31.54055","longitude":"-68.49794"},{"name":"Santa Fe","latitude":"-31.64881","longitude":"-60.70868"},{"name":"San Salvador de Jujuy","latitude":"-24.19457","longitude":"-65.29712"},{"name":"San Ramón de la Nueva Orán","latitude":"-23.13705","longitude":"-64.32426"},{"name":"San Rafael","latitude":"-34.61531","longitude":"-68.33238"},{"name":"San Pedro de Jujuy","latitude":"-24.23127","longitude":"-64.86614"},{"name":"San Nicolás de los Arroyos","latitude":"-33.33425","longitude":"-60.2108"},{"name":"San Miguel de Tucumán","latitude":"-26.82414","longitude":"-65.2226"},{"name":"San Martín de los Andes","latitude":"-40.15789","longitude":"-71.35337"},{"name":"San Martín","latitude":"-33.08338","longitude":"-68.47312"},{"name":"San Luis","latitude":"-33.29501","longitude":"-66.33563"},{"name":"San Justo","latitude":"-30.78913","longitude":"-60.59189"},{"name":"San Juan","latitude":"-31.5375","longitude":"-68.53639"},{"name":"San José de Jáchal","latitude":"-30.24162","longitude":"-68.74662"},{"name":"San Jorge","latitude":"-31.89618","longitude":"-61.85984"},{"name":"San Francisco","latitude":"-31.42797","longitude":"-62.08266"},{"name":"Catamarca","latitude":"-28.46957","longitude":"-65.78524"},{"name":"San Antonio Oeste","latitude":"-40.73193","longitude":"-64.94769"},{"name":"Salta","latitude":"-24.7859","longitude":"-65.41166"},{"name":"Rufino","latitude":"-34.26827","longitude":"-62.71262"},{"name":"Rosario","latitude":"-32.94682","longitude":"-60.63932"},{"name":"Río Tercero","latitude":"-32.17301","longitude":"-64.11405"},{"name":"Río Segundo","latitude":"-31.6526","longitude":"-63.9099"},{"name":"Río Grande","latitude":"-53.78773","longitude":"-67.70975"},{"name":"Río Gallegos","latitude":"-51.62261","longitude":"-69.21813"},{"name":"Río Cuarto","latitude":"-33.13067","longitude":"-64.34992"},{"name":"Río Ceballos","latitude":"-31.1697","longitude":"-64.3175"},{"name":"Rawson","latitude":"-43.30016","longitude":"-65.10228"},{"name":"Rafaela","latitude":"-31.25033","longitude":"-61.4867"},{"name":"Quitilipi","latitude":"-26.86913","longitude":"-60.21683"},{"name":"Punta Alta","latitude":"-38.87588","longitude":"-62.07359"},{"name":"Puerto Madryn","latitude":"-42.76848","longitude":"-65.03827"},{"name":"Presidencia Roque Sáenz Peña","latitude":"-26.78522","longitude":"-60.43876"},{"name":"Pocito","latitude":"-31.68333","longitude":"-68.58333"},{"name":"Plottier","latitude":"-38.96667","longitude":"-68.23333"},{"name":"Pergamino","latitude":"-33.88995","longitude":"-60.57357"},{"name":"Pérez","latitude":"-32.99835","longitude":"-60.76791"},{"name":"Paraná","latitude":"-31.73271","longitude":"-60.52897"},{"name":"Palpalá","latitude":"-24.25798","longitude":"-65.21358"},{"name":"Olavarría","latitude":"-36.89272","longitude":"-60.32254"},{"name":"Nueve de Julio","latitude":"-35.44437","longitude":"-60.88313"},{"name":"Neuquén","latitude":"-38.95161","longitude":"-68.0591"},{"name":"Morteros","latitude":"-30.71164","longitude":"-61.99862"},{"name":"Monteros","latitude":"-27.16741","longitude":"-65.49832"},{"name":"Mendoza","latitude":"-32.89084","longitude":"-68.82717"},{"name":"Marcos Juárez","latitude":"-32.6978","longitude":"-62.10672"},{"name":"Machagai","latitude":"-26.92614","longitude":"-60.04955"},{"name":"Lincoln","latitude":"-34.86649","longitude":"-61.5302"},{"name":"Libertador General San Martín","latitude":"-23.81305","longitude":"-64.79353"},{"name":"Las Breñas","latitude":"-27.08966","longitude":"-61.08161"},{"name":"La Rioja","latitude":"-29.41105","longitude":"-66.85067"},{"name":"La Falda","latitude":"-31.08841","longitude":"-64.48987"},{"name":"La Calera","latitude":"-31.34582","longitude":"-64.33849"},{"name":"Laboulaye","latitude":"-34.12662","longitude":"-63.39119"},{"name":"Junín","latitude":"-34.58382","longitude":"-60.94332"},{"name":"Joaquín V. González","latitude":"-25.11364","longitude":"-64.12628"},{"name":"Jesús María","latitude":"-30.98153","longitude":"-64.09424"},{"name":"Granadero Baigorria","latitude":"-32.85683","longitude":"-60.71754"},{"name":"Gobernador Gálvez","latitude":"-33.03016","longitude":"-60.64045"},{"name":"General Villegas","latitude":"-35.03285","longitude":"-63.01252"},{"name":"General Roca","latitude":"-39.03333","longitude":"-67.58333"},{"name":"General Pinedo","latitude":"-27.31667","longitude":"-61.28333"},{"name":"General Pico","latitude":"-35.6593","longitude":"-63.75787"},{"name":"General Mosconi","latitude":"-22.59617","longitude":"-63.811"},{"name":"Gálvez","latitude":"-32.02927","longitude":"-61.22103"},{"name":"Firmat","latitude":"-33.45937","longitude":"-61.4832"},{"name":"Famaillá","latitude":"-27.05413","longitude":"-65.40329"},{"name":"Esquel","latitude":"-42.91147","longitude":"-71.31947"},{"name":"Esperanza","latitude":"-31.4488","longitude":"-60.93173"},{"name":"Embarcación","latitude":"-23.21003","longitude":"-64.09965"},{"name":"Embalse","latitude":"-32.18","longitude":"-64.41809"},{"name":"El Bolsón","latitude":"-41.96051","longitude":"-71.53336"},{"name":"Diamante","latitude":"-32.06641","longitude":"-60.63837"},{"name":"Deán Funes","latitude":"-30.42036","longitude":"-64.34984"},{"name":"Cutral-Có","latitude":"-38.93424","longitude":"-69.23052"},{"name":"Cruz del Eje","latitude":"-30.72644","longitude":"-64.80387"},{"name":"Crespo","latitude":"-32.02873","longitude":"-60.30658"},{"name":"Cosquín","latitude":"-31.24508","longitude":"-64.46563"},{"name":"Coronel Suárez","latitude":"-37.45467","longitude":"-61.93343"},{"name":"Coronda","latitude":"-31.97263","longitude":"-60.91983"},{"name":"Córdoba","latitude":"-31.4135","longitude":"-64.18105"},{"name":"Comodoro Rivadavia","latitude":"-45.86256","longitude":"-67.494"},{"name":"Cipolletti","latitude":"-38.93392","longitude":"-67.99032"},{"name":"Cinco Saltos","latitude":"-38.82225","longitude":"-68.06293"},{"name":"Chivilcoy","latitude":"-34.89566","longitude":"-60.01667"},{"name":"Chimbas","latitude":"-31.49313","longitude":"-68.53263"},{"name":"Chilecito","latitude":"-29.16195","longitude":"-67.4974"},{"name":"Charata","latitude":"-27.21438","longitude":"-61.18795"},{"name":"Chacabuco","latitude":"-34.64167","longitude":"-60.47389"},{"name":"Centenario","latitude":"-38.82955","longitude":"-68.1318"},{"name":"Caucete","latitude":"-31.6515","longitude":"-68.28216"},{"name":"Catriel","latitude":"-37.87552","longitude":"-67.79451"},{"name":"Castelli","latitude":"-25.94679","longitude":"-60.61947"},{"name":"Casilda","latitude":"-33.04417","longitude":"-61.16806"},{"name":"Carcarañá","latitude":"-32.85679","longitude":"-61.15331"},{"name":"Capitán Bermúdez","latitude":"-32.82262","longitude":"-60.71852"},{"name":"Cañada de Gómez","latitude":"-32.81636","longitude":"-61.39493"},{"name":"Caleta Olivia","latitude":"-46.44785","longitude":"-67.52274"},{"name":"Bell Ville","latitude":"-32.62591","longitude":"-62.68873"},{"name":"Bella Vista","latitude":"-27.03424","longitude":"-65.30196"},{"name":"Bahía Blanca","latitude":"-38.71959","longitude":"-62.27243"},{"name":"Arroyo Seco","latitude":"-33.15489","longitude":"-60.50863"},{"name":"Arroyito","latitude":"-31.42022","longitude":"-63.05002"},{"name":"Añatuya","latitude":"-28.46064","longitude":"-62.83472"},{"name":"Alta Gracia","latitude":"-31.65292","longitude":"-64.42826"},{"name":"Allen","latitude":"-38.97736","longitude":"-67.82714"},{"name":"Alderetes","latitude":"-26.81667","longitude":"-65.13333"},{"name":"Albardón","latitude":"-31.43722","longitude":"-68.52556"},{"name":"Aguilares","latitude":"-27.4338","longitude":"-65.61427"},{"name":"Balvanera","latitude":"-34.61032","longitude":"-58.39766"},{"name":"Villa Santa Rita","latitude":"-34.61082","longitude":"-58.481"},{"name":"Villa Mercedes","latitude":"-33.67571","longitude":"-65.45783"},{"name":"San Miguel","latitude":"-34.54335","longitude":"-58.71229"},{"name":"San Carlos de Bariloche","latitude":"-41.14557","longitude":"-71.30822"},{"name":"Adrogué","latitude":"-34.80041","longitude":"-58.38384"},{"name":"Ingeniero Pablo Nogués","latitude":"-34.47775","longitude":"-58.70652"},{"name":"Villa Sarmiento","latitude":"-34.63317","longitude":"-58.56884"},{"name":"José C. Paz","latitude":"-34.51541","longitude":"-58.76813"},{"name":"Pago Pago","latitude":"-14.27806","longitude":"-170.7025"},{"name":"Wilten","latitude":"47.25829","longitude":"11.38808"},{"name":"Wiener Neustadt","latitude":"47.80485","longitude":"16.23196"},{"name":"Vienna","latitude":"48.20849","longitude":"16.37208"},{"name":"Wetzelsdorf","latitude":"47.05293","longitude":"15.39923"},{"name":"Wels","latitude":"48.16667","longitude":"14.03333"},{"name":"Villach","latitude":"46.61028","longitude":"13.85583"},{"name":"Telfs","latitude":"47.30707","longitude":"11.06817"},{"name":"Straßgang","latitude":"47.03333","longitude":"15.4"},{"name":"Stockerau","latitude":"48.38333","longitude":"16.21667"},{"name":"Steyr","latitude":"48.04274","longitude":"14.42127"},{"name":"Simmering","latitude":"48.18333","longitude":"16.43333"},{"name":"Sankt Pölten","latitude":"48.2","longitude":"15.63333"},{"name":"Sankt Peter","latitude":"47.05","longitude":"15.46667"},{"name":"Sankt Peter","latitude":"46.62978","longitude":"14.34016"},{"name":"Sankt Martin","latitude":"46.61667","longitude":"14.28333"},{"name":"Salzburg","latitude":"47.79941","longitude":"13.04399"},{"name":"Saalfelden am Steinernen Meer","latitude":"47.42681","longitude":"12.848"},{"name":"Pradl","latitude":"47.26539","longitude":"11.4152"},{"name":"Perchtoldsdorf","latitude":"48.11935","longitude":"16.26607"},{"name":"Ottakring","latitude":"48.21667","longitude":"16.3"},{"name":"Mödling","latitude":"48.08605","longitude":"16.28921"},{"name":"Meidling","latitude":"48.16667","longitude":"16.33333"},{"name":"Lustenau","latitude":"47.42642","longitude":"9.65851"},{"name":"Linz","latitude":"48.30639","longitude":"14.28611"},{"name":"Klosterneuburg","latitude":"48.30521","longitude":"16.32522"},{"name":"Klagenfurt am Wörthersee","latitude":"46.62472","longitude":"14.30528"},{"name":"Innsbruck","latitude":"47.26266","longitude":"11.39454"},{"name":"Innere Stadt","latitude":"48.20906","longitude":"16.37135"},{"name":"Hötting","latitude":"47.26815","longitude":"11.36868"},{"name":"Hohenems","latitude":"47.36121","longitude":"9.68694"},{"name":"Hietzing","latitude":"48.18623","longitude":"16.2965"},{"name":"Hernals","latitude":"48.23333","longitude":"16.26667"},{"name":"Graz","latitude":"47.06667","longitude":"15.45"},{"name":"Floridsdorf","latitude":"48.25","longitude":"16.4"},{"name":"Feldkirch","latitude":"47.23306","longitude":"9.6"},{"name":"Eggenberg","latitude":"47.07","longitude":"15.39871"},{"name":"Dornbirn","latitude":"47.41427","longitude":"9.74195"},{"name":"Bregenz","latitude":"47.50311","longitude":"9.7471"},{"name":"Baden","latitude":"48.00543","longitude":"16.23264"},{"name":"Amstetten","latitude":"48.1229","longitude":"14.87206"},{"name":"Favoriten","latitude":"48.16116","longitude":"16.38233"},{"name":"Donaustadt","latitude":"48.2333","longitude":"16.46002"},{"name":"Jakomini","latitude":"47.05441","longitude":"15.44984"},{"name":"Lend","latitude":"47.08256","longitude":"15.41589"},{"name":"Geidorf","latitude":"47.08393","longitude":"15.444"},{"name":"Sankt Leonhard","latitude":"47.06924","longitude":"15.45784"},{"name":"Andritz","latitude":"47.11387","longitude":"15.42348"},{"name":"Gries","latitude":"47.06236","longitude":"15.42421"},{"name":"Scarborough","latitude":"-31.89578","longitude":"115.76431"},{"name":"Rockingham","latitude":"-32.27682","longitude":"115.72978"},{"name":"Perth","latitude":"-31.95224","longitude":"115.8614"},{"name":"Mount Isa","latitude":"-20.72523","longitude":"139.49727"},{"name":"Morphett Vale","latitude":"-35.13333","longitude":"138.51667"},{"name":"Mandurah","latitude":"-32.5269","longitude":"115.7217"},{"name":"Kwinana","latitude":"-32.23013","longitude":"115.78128"},{"name":"Gosnells","latitude":"-32.081","longitude":"116.0054"},{"name":"Geraldton","latitude":"-28.77897","longitude":"114.61459"},{"name":"Gawler","latitude":"-34.60251","longitude":"138.74902"},{"name":"Darwin","latitude":"-12.46113","longitude":"130.84185"},{"name":"Byford","latitude":"-32.22099","longitude":"116.009"},{"name":"Busselton","latitude":"-33.65249","longitude":"115.3455"},{"name":"Bunbury","latitude":"-33.32711","longitude":"115.64137"},{"name":"Australind","latitude":"-33.2792","longitude":"115.71504"},{"name":"Alice Springs","latitude":"-23.69748","longitude":"133.88362"},{"name":"Albany","latitude":"-35.02692","longitude":"117.88369"},{"name":"Adelaide","latitude":"-34.92866","longitude":"138.59863"},{"name":"Yarraville","latitude":"-37.81667","longitude":"144.9"},{"name":"Wollert","latitude":"-37.58333","longitude":"145.03333"},{"name":"Wodonga","latitude":"-36.12179","longitude":"146.88809"},{"name":"Wheelers Hill","latitude":"-37.9","longitude":"145.18333"},{"name":"Westmead","latitude":"-33.80383","longitude":"150.98768"},{"name":"Werribee","latitude":"-37.9","longitude":"144.66667"},{"name":"Warwick","latitude":"-28.21901","longitude":"152.03438"},{"name":"Warrnambool","latitude":"-38.38176","longitude":"142.48799"},{"name":"Warragul","latitude":"-38.15912","longitude":"145.93118"},{"name":"Wantirna South","latitude":"-37.88333","longitude":"145.21667"},{"name":"Wangaratta","latitude":"-36.35846","longitude":"146.32056"},{"name":"Wahroonga","latitude":"-33.71816","longitude":"151.11561"},{"name":"Upper Coomera","latitude":"-27.87683","longitude":"153.28572"},{"name":"Truganina","latitude":"-37.81667","longitude":"144.75"},{"name":"Traralgon","latitude":"-38.19528","longitude":"146.5415"},{"name":"Townsville","latitude":"-19.26639","longitude":"146.80569"},{"name":"Toowoomba","latitude":"-27.56056","longitude":"151.95386"},{"name":"Thornbury","latitude":"-37.75819","longitude":"145.00583"},{"name":"Thomastown","latitude":"-37.68333","longitude":"145.01667"},{"name":"Templestowe","latitude":"-37.75405","longitude":"145.14864"},{"name":"Tarneit","latitude":"-37.83634","longitude":"144.65952"},{"name":"Taree","latitude":"-31.91099","longitude":"152.45387"},{"name":"Tamworth","latitude":"-31.09048","longitude":"150.92905"},{"name":"Sydney","latitude":"-33.86785","longitude":"151.20732"},{"name":"Surry Hills","latitude":"-33.88374","longitude":"151.21282"},{"name":"Surfers Paradise","latitude":"-28.00274","longitude":"153.42999"},{"name":"Sunbury","latitude":"-37.57742","longitude":"144.72607"},{"name":"Strathfield","latitude":"-33.88096","longitude":"151.07986"},{"name":"Springvale","latitude":"-37.94853","longitude":"145.15274"},{"name":"South Yarra","latitude":"-37.83834","longitude":"144.99149"},{"name":"Southport","latitude":"-27.96724","longitude":"153.39796"},{"name":"Shepparton","latitude":"-36.38047","longitude":"145.39867"},{"name":"Seven Hills","latitude":"-33.78333","longitude":"150.93333"},{"name":"Seaford","latitude":"-38.1","longitude":"145.13333"},{"name":"Saint Kilda","latitude":"-37.8676","longitude":"144.98099"},{"name":"Saint Ives","latitude":"-33.72976","longitude":"151.15977"},{"name":"Saint Albans","latitude":"-37.73333","longitude":"144.8"},{"name":"Ryde","latitude":"-33.8188","longitude":"151.1062"},{"name":"Rowville","latitude":"-37.93333","longitude":"145.23333"},{"name":"Rockhampton","latitude":"-23.38032","longitude":"150.50595"},{"name":"Rockdale","latitude":"-33.95","longitude":"151.13333"},{"name":"Ringwood","latitude":"-37.81667","longitude":"145.23333"},{"name":"Richmond","latitude":"-37.81819","longitude":"145.00176"},{"name":"Reservoir","latitude":"-37.71667","longitude":"145"},{"name":"Quakers Hill","latitude":"-33.73333","longitude":"150.88333"},{"name":"Preston","latitude":"-37.75","longitude":"145.01667"},{"name":"Port Melbourne","latitude":"-37.83961","longitude":"144.94228"},{"name":"Port Macquarie","latitude":"-31.43084","longitude":"152.90894"},{"name":"Point Cook","latitude":"-37.91482","longitude":"144.75088"},{"name":"Pascoe Vale","latitude":"-37.73333","longitude":"144.93333"},{"name":"Palm Beach","latitude":"-28.11694","longitude":"153.46584"},{"name":"Pakenham","latitude":"-38.07018","longitude":"145.47411"},{"name":"Orange","latitude":"-33.28397","longitude":"149.10018"},{"name":"Officer","latitude":"-38.05916","longitude":"145.40947"},{"name":"North Melbourne","latitude":"-37.79798","longitude":"144.94512"},{"name":"Northcote","latitude":"-37.76667","longitude":"145"},{"name":"Noble Park","latitude":"-37.96667","longitude":"145.16667"},{"name":"Newcastle","latitude":"-32.92953","longitude":"151.7801"},{"name":"Nerang","latitude":"-27.98941","longitude":"153.33633"},{"name":"Narre Warren","latitude":"-38.03333","longitude":"145.3"},{"name":"Narangba","latitude":"-27.20338","longitude":"152.95923"},{"name":"Mulgrave","latitude":"-37.92845","longitude":"145.17708"},{"name":"Mount Waverley","latitude":"-37.87709","longitude":"145.12939"},{"name":"Mount Martha","latitude":"-38.26667","longitude":"145.01667"},{"name":"Mount Gambier","latitude":"-37.8318","longitude":"140.77919"},{"name":"Mount Eliza","latitude":"-38.18333","longitude":"145.08333"},{"name":"Mount Druitt","latitude":"-33.76667","longitude":"150.81667"},{"name":"Mosman","latitude":"-33.83902","longitude":"151.23956"},{"name":"Mornington","latitude":"-38.21792","longitude":"145.03876"},{"name":"Morayfield","latitude":"-27.10876","longitude":"152.94907"},{"name":"South Morang","latitude":"-37.65","longitude":"145.1"},{"name":"Mooroolbark","latitude":"-37.78247","longitude":"145.31682"},{"name":"Moonee Ponds","latitude":"-37.76667","longitude":"144.91667"},{"name":"Mitcham","latitude":"-37.81667","longitude":"145.2"},{"name":"Miranda","latitude":"-34.03857","longitude":"151.10005"},{"name":"Mill Park","latitude":"-37.66667","longitude":"145.06667"},{"name":"Mildura","latitude":"-34.18551","longitude":"142.16251"},{"name":"Merrylands","latitude":"-33.83333","longitude":"150.98333"},{"name":"Mernda","latitude":"-37.60075","longitude":"145.09555"},{"name":"Melbourne","latitude":"-37.814","longitude":"144.96332"},{"name":"Mascot","latitude":"-33.92598","longitude":"151.19347"},{"name":"Maryborough","latitude":"-25.54073","longitude":"152.70493"},{"name":"Marrickville","latitude":"-33.90741","longitude":"151.15546"},{"name":"Maroubra","latitude":"-33.95","longitude":"151.23333"},{"name":"Manly","latitude":"-33.79798","longitude":"151.28826"},{"name":"Maitland","latitude":"-32.73308","longitude":"151.5574"},{"name":"Mackay","latitude":"-21.15345","longitude":"149.16554"},{"name":"Liverpool","latitude":"-33.91938","longitude":"150.92588"},{"name":"Lilydale","latitude":"-37.75","longitude":"145.35"},{"name":"Lidcombe","latitude":"-33.86436","longitude":"151.0397"},{"name":"Launceston","latitude":"-41.43876","longitude":"147.13467"},{"name":"Lara","latitude":"-38.02388","longitude":"144.40617"},{"name":"Langwarrin","latitude":"-38.16667","longitude":"145.16667"},{"name":"Lalor","latitude":"-37.66667","longitude":"145.01667"},{"name":"Lakemba","latitude":"-33.91972","longitude":"151.07592"},{"name":"Kogarah","latitude":"-33.9681","longitude":"151.13564"},{"name":"Keysborough","latitude":"-37.99116","longitude":"145.17385"},{"name":"Kew","latitude":"-37.80639","longitude":"145.03086"},{"name":"Kensington","latitude":"-33.92019","longitude":"151.22241"},{"name":"Hornsby","latitude":"-33.70244","longitude":"151.09931"},{"name":"Hobart","latitude":"-42.87936","longitude":"147.32941"},{"name":"Hawthorn South","latitude":"-37.8329","longitude":"145.0367"},{"name":"Hawthorn","latitude":"-37.81992","longitude":"145.0358"},{"name":"Hampton Park","latitude":"-38.03333","longitude":"145.25"},{"name":"Griffith","latitude":"-34.28853","longitude":"146.05093"},{"name":"Greenvale","latitude":"-37.63333","longitude":"144.86667"},{"name":"Greensborough","latitude":"-37.70462","longitude":"145.10302"},{"name":"Granville","latitude":"-33.8406","longitude":"151.00748"},{"name":"Goulburn","latitude":"-34.75155","longitude":"149.72086"},{"name":"Gold Coast","latitude":"-28.00029","longitude":"153.43088"},{"name":"Glen Waverley","latitude":"-37.87811","longitude":"145.16476"},{"name":"Glenroy","latitude":"-37.7","longitude":"144.93333"},{"name":"Glen Iris","latitude":"-37.86667","longitude":"145.06667"},{"name":"Glenferrie","latitude":"-37.83333","longitude":"145.05"},{"name":"Gladstone","latitude":"-23.84852","longitude":"151.25775"},{"name":"Geelong","latitude":"-38.14711","longitude":"144.36069"},{"name":"Frankston East","latitude":"-38.13333","longitude":"145.13333"},{"name":"Frankston","latitude":"-38.14458","longitude":"145.12291"},{"name":"Footscray","latitude":"-37.8","longitude":"144.9"},{"name":"Fairfield","latitude":"-33.86667","longitude":"150.95"},{"name":"Essendon","latitude":"-37.74981","longitude":"144.9109"},{"name":"Epping","latitude":"-37.65","longitude":"145.03333"},{"name":"Epping","latitude":"-33.77271","longitude":"151.08184"},{"name":"Engadine","latitude":"-34.06564","longitude":"151.01266"},{"name":"Eltham","latitude":"-37.73333","longitude":"145.15"},{"name":"Eight Mile Plains","latitude":"-27.58333","longitude":"153.1"},{"name":"Eastwood","latitude":"-33.79176","longitude":"151.08057"},{"name":"Earlwood","latitude":"-33.9209","longitude":"151.12506"},{"name":"Dubbo","latitude":"-32.24295","longitude":"148.60484"},{"name":"Doreen","latitude":"-37.6","longitude":"145.15"},{"name":"Doncaster East","latitude":"-37.78761","longitude":"145.14888"},{"name":"Doncaster","latitude":"-37.78828","longitude":"145.12373"},{"name":"Deer Park","latitude":"-37.76722","longitude":"144.76657"},{"name":"Deception Bay","latitude":"-27.19354","longitude":"153.02631"},{"name":"Dandenong","latitude":"-37.98333","longitude":"145.2"},{"name":"Croydon","latitude":"-37.8","longitude":"145.28333"},{"name":"Cronulla","latitude":"-34.06251","longitude":"151.14961"},{"name":"Cranbourne","latitude":"-38.11342","longitude":"145.28326"},{"name":"Craigieburn","latitude":"-37.6","longitude":"144.95"},{"name":"Corio","latitude":"-38.08333","longitude":"144.38333"},{"name":"Coorparoo","latitude":"-27.49325","longitude":"153.05826"},{"name":"Coogee","latitude":"-33.9205","longitude":"151.25522"},{"name":"Coffs Harbour","latitude":"-30.29626","longitude":"153.11351"},{"name":"Coburg","latitude":"-37.75","longitude":"144.96667"},{"name":"Clayton","latitude":"-37.91667","longitude":"145.11667"},{"name":"Wollongong","latitude":"-34.424","longitude":"150.89345"},{"name":"Chatswood","latitude":"-33.8","longitude":"151.18333"},{"name":"Cessnock","latitude":"-32.83211","longitude":"151.35623"},{"name":"Caulfield North","latitude":"-37.8739","longitude":"145.02485"},{"name":"Castle Hill","latitude":"-33.73333","longitude":"151"},{"name":"Carrum Downs","latitude":"-38.09968","longitude":"145.17248"},{"name":"Carnegie","latitude":"-37.89359","longitude":"145.05534"},{"name":"Carlton","latitude":"-37.8","longitude":"144.96667"},{"name":"Carlingford","latitude":"-33.78269","longitude":"151.04888"},{"name":"Capalaba","latitude":"-27.54333","longitude":"153.20287"},{"name":"Canberra","latitude":"-35.28346","longitude":"149.12807"},{"name":"Camberwell","latitude":"-37.84205","longitude":"145.0694"},{"name":"Cairns","latitude":"-16.92366","longitude":"145.76613"},{"name":"Caboolture","latitude":"-27.08465","longitude":"152.9511"},{"name":"Burwood","latitude":"-33.88333","longitude":"151.1"},{"name":"Burnie","latitude":"-41.05584","longitude":"145.90375"},{"name":"Bundaberg","latitude":"-24.86621","longitude":"152.3479"},{"name":"Buderim","latitude":"-26.68443","longitude":"153.05705"},{"name":"Brunswick","latitude":"-37.76667","longitude":"144.96667"},{"name":"Broken Hill","latitude":"-31.9652","longitude":"141.4512"},{"name":"Brisbane","latitude":"-27.46794","longitude":"153.02809"},{"name":"Brighton","latitude":"-37.90561","longitude":"145.00279"},{"name":"Boronia","latitude":"-37.86667","longitude":"145.28333"},{"name":"Blacktown","latitude":"-33.76667","longitude":"150.91667"},{"name":"Bexley","latitude":"-33.95","longitude":"151.11667"},{"name":"Berwick","latitude":"-38.03333","longitude":"145.35"},{"name":"Bentleigh East","latitude":"-37.91928","longitude":"145.05301"},{"name":"Bentleigh","latitude":"-37.91806","longitude":"145.03544"},{"name":"Bendigo","latitude":"-36.75818","longitude":"144.28024"},{"name":"Baulkham Hills","latitude":"-33.75881","longitude":"150.99292"},{"name":"Bathurst","latitude":"-33.41665","longitude":"149.5806"},{"name":"Banora Point","latitude":"-28.21298","longitude":"153.53634"},{"name":"Bankstown","latitude":"-33.91667","longitude":"151.03333"},{"name":"Ballarat","latitude":"-37.56622","longitude":"143.84957"},{"name":"Bairnsdale","latitude":"-37.82289","longitude":"147.61041"},{"name":"Auburn","latitude":"-33.85","longitude":"151.03333"},{"name":"Ashfield","latitude":"-33.88834","longitude":"151.12274"},{"name":"Ascot Vale","latitude":"-37.77988","longitude":"144.92276"},{"name":"Armidale","latitude":"-30.50123","longitude":"151.66553"},{"name":"Albany Creek","latitude":"-27.35364","longitude":"152.96848"},{"name":"Maroochydore","latitude":"-26.66008","longitude":"153.09953"},{"name":"Cheltenham","latitude":"-37.96944","longitude":"145.04806"},{"name":"Randwick","latitude":"-33.91439","longitude":"151.24895"},{"name":"Dee Why","latitude":"-33.7511","longitude":"151.28886"},{"name":"Umina Beach","latitude":"-33.52314","longitude":"151.31325"},{"name":"Palmerston","latitude":"-12.48602","longitude":"130.9833"},{"name":"Hervey Bay","latitude":"-25.28762","longitude":"152.76936"},{"name":"Sydney Central Business District","latitude":"-33.86482","longitude":"151.20773"},{"name":"Kingsford","latitude":"-33.92399","longitude":"151.22749"},{"name":"Springfield Lakes","latitude":"-27.66757","longitude":"152.92488"},{"name":"Bracken Ridge","latitude":"-27.3171","longitude":"153.03097"},{"name":"Kallangur","latitude":"-27.25204","longitude":"152.99226"},{"name":"North Lakes","latitude":"-27.22426","longitude":"153.02075"},{"name":"The Gap","latitude":"-27.44187","longitude":"152.93861"},{"name":"Caroline Springs","latitude":"-37.74124","longitude":"144.73631"},{"name":"Hoppers Crossing","latitude":"-37.88264","longitude":"144.7003"},{"name":"Logan City","latitude":"-27.63917","longitude":"153.10944"},{"name":"Carindale","latitude":"-27.50578","longitude":"153.10236"},{"name":"Parramatta","latitude":"-33.8178","longitude":"151.00348"},{"name":"Ferntree Gully","latitude":"-37.88461","longitude":"145.29539"},{"name":"Adelaide Hills","latitude":"-34.91119","longitude":"138.70735"},{"name":"Canning Vale","latitude":"-32.05799","longitude":"115.91814"},{"name":"Glenmore Park","latitude":"-33.79068","longitude":"150.6693"},{"name":"Southbank","latitude":"-37.8228","longitude":"144.96434"},{"name":"Docklands","latitude":"-37.8149","longitude":"144.95052"},{"name":"Helensvale","latitude":"-27.91828","longitude":"153.33275"},{"name":"Elwood","latitude":"-37.88214","longitude":"144.98215"},{"name":"Balwyn North","latitude":"-37.79086","longitude":"145.09386"},{"name":"Malvern East","latitude":"-37.87397","longitude":"145.04253"},{"name":"Brighton East","latitude":"-37.90232","longitude":"145.01734"},{"name":"Redbank Plains","latitude":"-27.64613","longitude":"152.85965"},{"name":"Labrador","latitude":"-27.94402","longitude":"153.39815"},{"name":"St Albans","latitude":"-37.74496","longitude":"144.80049"},{"name":"Endeavour Hills","latitude":"-37.97695","longitude":"145.25866"},{"name":"Kellyville","latitude":"-33.71028","longitude":"150.95095"},{"name":"Taylors Lakes","latitude":"-37.69863","longitude":"144.78631"},{"name":"Cherrybrook","latitude":"-33.72197","longitude":"151.04607"},{"name":"Roxburgh Park","latitude":"-37.62581","longitude":"144.92555"},{"name":"Prestons","latitude":"-33.94185","longitude":"150.8717"},{"name":"Wyndham Vale","latitude":"-37.89138","longitude":"144.62368"},{"name":"Ballajura","latitude":"-31.84062","longitude":"115.89549"},{"name":"Willetton","latitude":"-32.05251","longitude":"115.88782"},{"name":"Glenwood","latitude":"-33.73333","longitude":"150.93284"},{"name":"Cabramatta","latitude":"-33.89743","longitude":"150.93446"},{"name":"Campsie","latitude":"-33.9125","longitude":"151.10279"},{"name":"Casula","latitude":"-33.95222","longitude":"150.89949"},{"name":"Cranebrook","latitude":"-33.7061","longitude":"150.7094"},{"name":"Greenacre","latitude":"-33.90034","longitude":"151.05563"},{"name":"Greystanes","latitude":"-33.82346","longitude":"150.94607"},{"name":"Ellenbrook","latitude":"-31.76737","longitude":"115.96936"},{"name":"Alexandra Hills","latitude":"-27.53221","longitude":"153.22889"},{"name":"Calamvale","latitude":"-27.62329","longitude":"153.04785"},{"name":"Yagoona","latitude":"-33.9049","longitude":"151.01996"},{"name":"Highton","latitude":"-38.17058","longitude":"144.3114"},{"name":"Pacific Pines","latitude":"-27.93994","longitude":"153.31436"},{"name":"Robina","latitude":"-28.07071","longitude":"153.39329"},{"name":"Paralowie","latitude":"-34.75705","longitude":"138.60819"},{"name":"Baldivis","latitude":"-32.32889","longitude":"115.83047"},{"name":"Dianella","latitude":"-31.88822","longitude":"115.87186"},{"name":"Duncraig","latitude":"-31.83291","longitude":"115.7759"},{"name":"Morley","latitude":"-31.88775","longitude":"115.9099"},{"name":"Thornlie","latitude":"-32.06003","longitude":"115.955"},{"name":"Landsdale","latitude":"-31.8075","longitude":"115.86599"},{"name":"Punchbowl","latitude":"-33.92893","longitude":"151.05111"},{"name":"Parafield Gardens","latitude":"-34.78254","longitude":"138.61077"},{"name":"Hillside","latitude":"-37.69047","longitude":"144.74172"},{"name":"St Clair","latitude":"-33.79728","longitude":"150.7847"},{"name":"Kirwan","latitude":"-19.30323","longitude":"146.72531"},{"name":"Bundoora","latitude":"-37.69825","longitude":"145.05967"},{"name":"Forest Lake","latitude":"-27.62563","longitude":"152.96883"},{"name":"Sunnybank Hills","latitude":"-27.61025","longitude":"153.05388"},{"name":"Rochedale South","latitude":"-27.59521","longitude":"153.12332"},{"name":"Keilor East","latitude":"-37.73261","longitude":"144.86504"},{"name":"Cranbourne East","latitude":"-38.11531","longitude":"145.29814"},{"name":"Cranbourne North","latitude":"-38.07758","longitude":"145.29871"},{"name":"Cranbourne West","latitude":"-38.0965","longitude":"145.26707"},{"name":"Narre Warren South","latitude":"-38.04369","longitude":"145.2923"},{"name":"Dandenong North","latitude":"-37.96649","longitude":"145.2081"},{"name":"Frankston South","latitude":"-38.16604","longitude":"145.13643"},{"name":"Sunshine West","latitude":"-37.79117","longitude":"144.81637"},{"name":"Altona Meadows","latitude":"-37.88413","longitude":"144.78367"},{"name":"Taylors Hill","latitude":"-37.70988","longitude":"144.75483"},{"name":"Hurstville","latitude":"-33.9677","longitude":"151.10149"},{"name":"West Pennant Hills","latitude":"-33.7457","longitude":"151.04764"},{"name":"Melbourne City Centre","latitude":"-37.81501","longitude":"144.96657"},{"name":"Adelaide city centre","latitude":"-34.92873","longitude":"138.60334"},{"name":"Wollongong city centre","latitude":"-34.4279","longitude":"150.89268"},{"name":"Tanki Leendert","latitude":"12.53914","longitude":"-70.02004"},{"name":"San Nicolas","latitude":"12.43624","longitude":"-69.90713"},{"name":"Oranjestad","latitude":"12.52398","longitude":"-70.02703"},{"name":"Mariehamn","latitude":"60.09726","longitude":"19.93481"},{"name":"Xankandi","latitude":"39.8177","longitude":"46.7528"},{"name":"Əhmədbəyli","latitude":"39.88074","longitude":"48.39158"},{"name":"Şuşa","latitude":"39.76006","longitude":"46.74989"},{"name":"Salyan","latitude":"39.59621","longitude":"48.98479"},{"name":"Saatlı","latitude":"39.93214","longitude":"48.36892"},{"name":"Neftçala","latitude":"39.3768","longitude":"49.247"},{"name":"Nakhchivan","latitude":"39.20889","longitude":"45.41222"},{"name":"Lerik","latitude":"38.77388","longitude":"48.41497"},{"name":"Lankaran","latitude":"38.75428","longitude":"48.85062"},{"name":"Imishli","latitude":"39.87095","longitude":"48.05995"},{"name":"Fizuli","latitude":"39.60094","longitude":"47.14529"},{"name":"Jalilabad","latitude":"39.20963","longitude":"48.49186"},{"name":"Pushkino","latitude":"39.45833","longitude":"48.545"},{"name":"Beylagan","latitude":"39.77556","longitude":"47.61861"},{"name":"Astara","latitude":"38.45598","longitude":"48.87498"},{"name":"Şirvan","latitude":"39.93778","longitude":"48.929"},{"name":"Ağdam","latitude":"39.99096","longitude":"46.92736"},{"name":"Zaqatala","latitude":"41.6316","longitude":"46.64479"},{"name":"Zabrat","latitude":"40.47746","longitude":"49.94174"},{"name":"Yevlakh","latitude":"40.61832","longitude":"47.15014"},{"name":"Göygöl","latitude":"40.58584","longitude":"46.3189"},{"name":"Xaçmaz","latitude":"41.46426","longitude":"48.80565"},{"name":"Ujar","latitude":"40.51902","longitude":"47.65423"},{"name":"Tovuz","latitude":"40.99249","longitude":"45.62838"},{"name":"Terter","latitude":"40.34201","longitude":"46.93161"},{"name":"Sumqayıt","latitude":"40.58972","longitude":"49.66861"},{"name":"Qaraçuxur","latitude":"40.39667","longitude":"49.97361"},{"name":"Shamkhor","latitude":"40.82975","longitude":"46.0178"},{"name":"Shamakhi","latitude":"40.63141","longitude":"48.64137"},{"name":"Sheki","latitude":"41.19194","longitude":"47.17056"},{"name":"Sabunçu","latitude":"40.4425","longitude":"49.94806"},{"name":"Sabirabad","latitude":"40.00869","longitude":"48.47701"},{"name":"Qusar","latitude":"41.4275","longitude":"48.4302"},{"name":"Quba","latitude":"41.36108","longitude":"48.51341"},{"name":"Hacıqabul","latitude":"40.03874","longitude":"48.94286"},{"name":"Qazax","latitude":"41.09246","longitude":"45.36561"},{"name":"Hacı Zeynalabdin","latitude":"40.62333","longitude":"49.55861"},{"name":"Mingelchaur","latitude":"40.76395","longitude":"47.05953"},{"name":"Maştağa","latitude":"40.52983","longitude":"50.00616"},{"name":"Mardakan","latitude":"40.49182","longitude":"50.14292"},{"name":"Lokbatan","latitude":"40.3256","longitude":"49.73376"},{"name":"Kyurdarmir","latitude":"40.34257","longitude":"48.15649"},{"name":"Khirdalan","latitude":"40.44808","longitude":"49.75502"},{"name":"İsmayıllı","latitude":"40.78485","longitude":"48.15141"},{"name":"Yeni Suraxanı","latitude":"40.43026","longitude":"50.03598"},{"name":"Göyçay","latitude":"40.65055","longitude":"47.74219"},{"name":"Hövsan","latitude":"40.37444","longitude":"50.08528"},{"name":"Ganja","latitude":"40.68278","longitude":"46.36056"},{"name":"Divichibazar","latitude":"41.20117","longitude":"48.98712"},{"name":"Buzovna","latitude":"40.51903","longitude":"50.11438"},{"name":"Biny Selo","latitude":"40.45076","longitude":"50.08686"},{"name":"Barda","latitude":"40.37577","longitude":"47.12619"},{"name":"Bilajari","latitude":"40.4444","longitude":"49.80566"},{"name":"Baku","latitude":"40.37767","longitude":"49.89201"},{"name":"Amirdzhan","latitude":"40.42639","longitude":"49.98361"},{"name":"Aghsu","latitude":"40.57028","longitude":"48.40087"},{"name":"Ağdaş","latitude":"40.64699","longitude":"47.4738"},{"name":"Agdzhabedy","latitude":"40.05015","longitude":"47.45937"},{"name":"Bakıxanov","latitude":"40.41894","longitude":"49.96693"},{"name":"Zenica","latitude":"44.20169","longitude":"17.90397"},{"name":"Visoko","latitude":"43.98889","longitude":"18.17806"},{"name":"Velika Kladuša","latitude":"45.18497","longitude":"15.80579"},{"name":"Tuzla","latitude":"44.53842","longitude":"18.66709"},{"name":"Trebinje","latitude":"42.71197","longitude":"18.34362"},{"name":"Travnik","latitude":"44.22637","longitude":"17.66583"},{"name":"Sarajevo","latitude":"43.84864","longitude":"18.35644"},{"name":"Prijedor","latitude":"44.97991","longitude":"16.71401"},{"name":"Mostar","latitude":"43.34333","longitude":"17.80806"},{"name":"Lukavac","latitude":"44.54245","longitude":"18.52618"},{"name":"Gradačac","latitude":"44.87851","longitude":"18.42764"},{"name":"Gračanica","latitude":"44.70307","longitude":"18.3101"},{"name":"Goražde","latitude":"43.66795","longitude":"18.97564"},{"name":"Doboj","latitude":"44.73179","longitude":"18.08698"},{"name":"Cazin","latitude":"44.96694","longitude":"15.94306"},{"name":"Bugojno","latitude":"44.05722","longitude":"17.45083"},{"name":"Brčko","latitude":"44.86995","longitude":"18.81012"},{"name":"Bosanska Krupa","latitude":"44.8825","longitude":"16.15139"},{"name":"Bijeljina","latitude":"44.75874","longitude":"19.21437"},{"name":"Bihać","latitude":"44.81694","longitude":"15.87083"},{"name":"Banja Luka","latitude":"44.77842","longitude":"17.19386"},{"name":"Konjic","latitude":"43.65126","longitude":"17.96082"},{"name":"Bridgetown","latitude":"13.10732","longitude":"-59.62021"},{"name":"Thākurgaon","latitude":"26.03097","longitude":"88.46989"},{"name":"Teknāf","latitude":"20.85829","longitude":"92.29773"},{"name":"Tungi","latitude":"23.89154","longitude":"90.40232"},{"name":"Sylhet","latitude":"24.89904","longitude":"91.87198"},{"name":"Dohār","latitude":"23.59311","longitude":"90.14251"},{"name":"Jamālpur","latitude":"24.91965","longitude":"89.94812"},{"name":"Shibganj","latitude":"25.00146","longitude":"89.32266"},{"name":"Shibganj","latitude":"24.68501","longitude":"88.15638"},{"name":"Sātkhira","latitude":"22.70817","longitude":"89.07185"},{"name":"Sirajganj","latitude":"24.45771","longitude":"89.70802"},{"name":"Netrakona","latitude":"24.88352","longitude":"90.72898"},{"name":"Narsingdi","latitude":"23.92298","longitude":"90.71768"},{"name":"Sandwīp","latitude":"22.51409","longitude":"91.45491"},{"name":"Shāhzādpur","latitude":"24.17687","longitude":"89.5988"},{"name":"Rāmganj","latitude":"23.1006","longitude":"90.84989"},{"name":"Rājshāhi","latitude":"24.374","longitude":"88.60114"},{"name":"Pirojpur","latitude":"22.57965","longitude":"89.97521"},{"name":"Panchagarh","latitude":"26.33338","longitude":"88.55777"},{"name":"Patiya","latitude":"22.29543","longitude":"91.979"},{"name":"Parbatipur","latitude":"25.66369","longitude":"88.93093"},{"name":"Nārāyanganj","latitude":"23.61352","longitude":"90.50298"},{"name":"Nālchiti","latitude":"22.63696","longitude":"90.27195"},{"name":"Nāgarpur","latitude":"24.05783","longitude":"89.87696"},{"name":"Nageswari","latitude":"25.96817","longitude":"89.69153"},{"name":"Mymensingh","latitude":"24.75636","longitude":"90.40646"},{"name":"Muktāgācha","latitude":"24.76484","longitude":"90.25698"},{"name":"Mirzāpur","latitude":"24.10287","longitude":"90.09841"},{"name":"Maulavi Bāzār","latitude":"24.48888","longitude":"91.77075"},{"name":"Morrelgonj","latitude":"22.45566","longitude":"89.85584"},{"name":"Mehendiganj","latitude":"22.82257","longitude":"90.52859"},{"name":"Mathba","latitude":"22.28616","longitude":"89.95883"},{"name":"Lalmonirhat","latitude":"25.91719","longitude":"89.44595"},{"name":"Lākshām","latitude":"23.24018","longitude":"91.12143"},{"name":"Comilla","latitude":"23.46186","longitude":"91.18503"},{"name":"Rangpur","latitude":"25.74664","longitude":"89.25166"},{"name":"Kushtia","latitude":"23.9028","longitude":"89.11943"},{"name":"Kālīganj","latitude":"23.40964","longitude":"89.13801"},{"name":"Jhingergācha","latitude":"23.11134","longitude":"89.09061"},{"name":"Joypur Hāt","latitude":"25.10147","longitude":"89.02734"},{"name":"Ishurdi","latitude":"24.12858","longitude":"89.06573"},{"name":"Habiganj","latitude":"24.38044","longitude":"91.41299"},{"name":"Gaurnadi","latitude":"22.97372","longitude":"90.22376"},{"name":"Gafargaon","latitude":"24.432","longitude":"90.5585"},{"name":"Feni","latitude":"23.0144","longitude":"91.3966"},{"name":"Rāipur","latitude":"23.0391","longitude":"90.76808"},{"name":"Sarankhola","latitude":"22.31006","longitude":"89.79113"},{"name":"Dhaka","latitude":"23.7104","longitude":"90.40744"},{"name":"Chilmāri","latitude":"25.55613","longitude":"89.67097"},{"name":"Chhāgalnāiya","latitude":"23.02475","longitude":"91.51091"},{"name":"Lālmohan","latitude":"22.33774","longitude":"90.73708"},{"name":"Khagrachhari","latitude":"23.10787","longitude":"91.97007"},{"name":"Chhātak","latitude":"25.03852","longitude":"91.66958"},{"name":"Bhātpāra Abhaynagar","latitude":"23.01472","longitude":"89.43936"},{"name":"Bherāmāra","latitude":"24.02452","longitude":"88.99234"},{"name":"Bhairab Bāzār","latitude":"24.0524","longitude":"90.9764"},{"name":"Bāndarban","latitude":"22.19534","longitude":"92.21946"},{"name":"Kālia","latitude":"23.043","longitude":"89.63094"},{"name":"Baniachang","latitude":"24.51863","longitude":"91.35787"},{"name":"Bājitpur","latitude":"24.21623","longitude":"90.95002"},{"name":"Bagerhat","latitude":"22.65657","longitude":"89.79123"},{"name":"Badarganj","latitude":"25.67419","longitude":"89.05377"},{"name":"Narail","latitude":"23.15509","longitude":"89.49515"},{"name":"Tungipāra","latitude":"22.89983","longitude":"89.90326"},{"name":"Sonārgaon","latitude":"23.65","longitude":"90.61667"},{"name":"Sarishābāri","latitude":"24.75127","longitude":"89.83126"},{"name":"Sakhipur","latitude":"24.31988","longitude":"90.16943"},{"name":"Raojān","latitude":"22.53511","longitude":"91.91919"},{"name":"Phultala","latitude":"22.71673","longitude":"89.51194"},{"name":"Pālang","latitude":"23.21824","longitude":"90.35076"},{"name":"Pār Naogaon","latitude":"24.80418","longitude":"88.94875"},{"name":"Nabīnagar","latitude":"23.88791","longitude":"90.96792"},{"name":"Lakshmīpur","latitude":"22.9443","longitude":"90.83005"},{"name":"Kesabpur","latitude":"22.90725","longitude":"89.21954"},{"name":"Hājīganj","latitude":"23.25191","longitude":"90.85508"},{"name":"Farīdpur","latitude":"23.60612","longitude":"89.84064"},{"name":"Dinājpur","latitude":"25.62745","longitude":"88.63779"},{"name":"Uttar Char Fasson","latitude":"22.22647","longitude":"90.71275"},{"name":"Chattogram","latitude":"22.3384","longitude":"91.83168"},{"name":"Char Bhadrāsan","latitude":"23.30916","longitude":"90.22698"},{"name":"Bera","latitude":"24.07821","longitude":"89.63262"},{"name":"Burhānuddin","latitude":"22.49518","longitude":"90.72391"},{"name":"Sātkania","latitude":"22.07639","longitude":"92.04955"},{"name":"Cox’s Bāzār","latitude":"21.43973","longitude":"92.00955"},{"name":"Khulna","latitude":"22.80979","longitude":"89.56439"},{"name":"Bhola","latitude":"22.68759","longitude":"90.64403"},{"name":"Barishal","latitude":"22.70497","longitude":"90.37013"},{"name":"Jessore","latitude":"23.16971","longitude":"89.21371"},{"name":"Pābna","latitude":"24.00644","longitude":"89.2372"},{"name":"Tāngāil","latitude":"24.24984","longitude":"89.91655"},{"name":"Bogra","latitude":"24.85098","longitude":"89.37108"},{"name":"Pīrgaaj","latitude":"25.85587","longitude":"88.35943"},{"name":"Nawābganj","latitude":"24.59025","longitude":"88.27444"},{"name":"Madaripur","latitude":"23.17097","longitude":"90.20935"},{"name":"Sherpur","latitude":"25.01881","longitude":"90.01751"},{"name":"Kishorganj","latitude":"24.43944","longitude":"90.78291"},{"name":"Manikchari","latitude":"22.83957","longitude":"91.84128"},{"name":"Bhāndāria","latitude":"22.48898","longitude":"90.06273"},{"name":"Bibir Hat","latitude":"22.68347","longitude":"91.79058"},{"name":"Saidpur","latitude":"25.77769","longitude":"88.89169"},{"name":"Puthia","latitude":"24.36537","longitude":"88.83431"},{"name":"Natore","latitude":"24.41112","longitude":"88.98673"},{"name":"Azimpur","latitude":"23.7298","longitude":"90.3854"},{"name":"Paotana Hat","latitude":"25.66473","longitude":"89.5026"},{"name":"Paltan","latitude":"23.73625","longitude":"90.41426"},{"name":"Zwijndrecht","latitude":"51.21979","longitude":"4.32664"},{"name":"Zwevegem","latitude":"50.81268","longitude":"3.33848"},{"name":"Zottegem","latitude":"50.86955","longitude":"3.81052"},{"name":"Zonhoven","latitude":"50.99064","longitude":"5.36819"},{"name":"Zolder","latitude":"51.02455","longitude":"5.30983"},{"name":"Zemst","latitude":"50.98318","longitude":"4.46079"},{"name":"Zele","latitude":"51.06566","longitude":"4.0403"},{"name":"Zedelgem","latitude":"51.14236","longitude":"3.1368"},{"name":"Zaventem","latitude":"50.88365","longitude":"4.47298"},{"name":"Wondelgem","latitude":"51.08705","longitude":"3.70909"},{"name":"Woluwe-Saint-Lambert","latitude":"50.84389","longitude":"4.42912"},{"name":"Wilrijk","latitude":"51.16734","longitude":"4.39513"},{"name":"Willebroek","latitude":"51.06041","longitude":"4.36019"},{"name":"Wevelgem","latitude":"50.8","longitude":"3.16667"},{"name":"Wetteren","latitude":"51.00526","longitude":"3.88341"},{"name":"Westerlo","latitude":"51.09049","longitude":"4.91544"},{"name":"Wervik","latitude":"50.78069","longitude":"3.03854"},{"name":"Wavre","latitude":"50.71717","longitude":"4.60138"},{"name":"Watermael-Boitsfort","latitude":"50.80154","longitude":"4.41436"},{"name":"Waterloo","latitude":"50.71469","longitude":"4.3991"},{"name":"Waregem","latitude":"50.88898","longitude":"3.42756"},{"name":"Walcourt","latitude":"50.25401","longitude":"4.43796"},{"name":"Visé","latitude":"50.7376","longitude":"5.69907"},{"name":"Vilvoorde","latitude":"50.92814","longitude":"4.42938"},{"name":"Verviers","latitude":"50.58907","longitude":"5.86241"},{"name":"Uccle","latitude":"50.80225","longitude":"4.33943"},{"name":"Turnhout","latitude":"51.32254","longitude":"4.94471"},{"name":"Tubize","latitude":"50.69059","longitude":"4.2009"},{"name":"Tournai","latitude":"50.60715","longitude":"3.38932"},{"name":"Torhout","latitude":"51.0656","longitude":"3.10085"},{"name":"Tongeren","latitude":"50.78054","longitude":"5.46484"},{"name":"Tienen","latitude":"50.80745","longitude":"4.9378"},{"name":"Tielt","latitude":"50.99931","longitude":"3.32707"},{"name":"Tessenderlo","latitude":"51.06513","longitude":"5.08856"},{"name":"Tervuren","latitude":"50.82372","longitude":"4.51418"},{"name":"Temse","latitude":"51.12794","longitude":"4.21372"},{"name":"Stekene","latitude":"51.2099","longitude":"4.03651"},{"name":"Stabroek","latitude":"51.33189","longitude":"4.37127"},{"name":"Soumagne","latitude":"50.61385","longitude":"5.74679"},{"name":"Soignies","latitude":"50.57904","longitude":"4.07129"},{"name":"Sint-Truiden","latitude":"50.81679","longitude":"5.18647"},{"name":"Sint-Pieters-Leeuw","latitude":"50.77926","longitude":"4.24355"},{"name":"Sint-Niklaas","latitude":"51.16509","longitude":"4.1437"},{"name":"Sint-Kruis","latitude":"51.21399","longitude":"3.24949"},{"name":"Sint-Katelijne-Waver","latitude":"51.06691","longitude":"4.53469"},{"name":"Sint-Gillis-Waas","latitude":"51.21914","longitude":"4.12374"},{"name":"Sint-Genesius-Rode","latitude":"50.74645","longitude":"4.35754"},{"name":"Sint-Andries","latitude":"51.19696","longitude":"3.17891"},{"name":"Sint-Amandsberg","latitude":"51.05947","longitude":"3.74943"},{"name":"Seraing","latitude":"50.58362","longitude":"5.50115"},{"name":"Schoten","latitude":"51.25251","longitude":"4.50268"},{"name":"Schilde","latitude":"51.24107","longitude":"4.58336"},{"name":"Schaerbeek","latitude":"50.86935","longitude":"4.37737"},{"name":"Saint-Nicolas","latitude":"50.62837","longitude":"5.53243"},{"name":"Saint-Josse-ten-Noode","latitude":"50.8538","longitude":"4.37282"},{"name":"Saint-Gilles","latitude":"50.82763","longitude":"4.34389"},{"name":"Saint-Ghislain","latitude":"50.44816","longitude":"3.81886"},{"name":"Rotselaar","latitude":"50.95302","longitude":"4.71665"},{"name":"Ronse","latitude":"50.74574","longitude":"3.6005"},{"name":"Roeselare","latitude":"50.94653","longitude":"3.12269"},{"name":"Rixensart","latitude":"50.71229","longitude":"4.52529"},{"name":"Riemst","latitude":"50.80995","longitude":"5.60131"},{"name":"Ranst","latitude":"51.18983","longitude":"4.56533"},{"name":"Quaregnon","latitude":"50.44067","longitude":"3.8653"},{"name":"Puurs","latitude":"51.07409","longitude":"4.28844"},{"name":"Putte","latitude":"51.05337","longitude":"4.63263"},{"name":"Poperinge","latitude":"50.85386","longitude":"2.72659"},{"name":"Pont-à-Celles","latitude":"50.50518","longitude":"4.36887"},{"name":"Péruwelz","latitude":"50.50819","longitude":"3.59373"},{"name":"Peer","latitude":"51.1303","longitude":"5.45952"},{"name":"Overijse","latitude":"50.77436","longitude":"4.53461"},{"name":"Oupeye","latitude":"50.71184","longitude":"5.6468"},{"name":"Oudenaarde","latitude":"50.85168","longitude":"3.60891"},{"name":"Oostkamp","latitude":"51.15432","longitude":"3.23128"},{"name":"Ostend","latitude":"51.21551","longitude":"2.927"},{"name":"Nivelles","latitude":"50.59833","longitude":"4.32848"},{"name":"Ninove","latitude":"50.82776","longitude":"4.02657"},{"name":"Nijlen","latitude":"51.16096","longitude":"4.67008"},{"name":"Neerpelt","latitude":"51.22807","longitude":"5.4427"},{"name":"Namur","latitude":"50.4669","longitude":"4.86746"},{"name":"Mouscron","latitude":"50.74497","longitude":"3.20639"},{"name":"Mortsel","latitude":"51.16697","longitude":"4.45127"},{"name":"Morlanwelz-Mariemont","latitude":"50.45502","longitude":"4.24519"},{"name":"Montignies-sur-Sambre","latitude":"50.41081","longitude":"4.49109"},{"name":"Mons","latitude":"50.45413","longitude":"3.95229"},{"name":"Molenbeek-Saint-Jean","latitude":"50.8499","longitude":"4.31248"},{"name":"Mol","latitude":"51.19188","longitude":"5.11662"},{"name":"Middelkerke","latitude":"51.18532","longitude":"2.82077"},{"name":"Merksem","latitude":"51.24623","longitude":"4.44903"},{"name":"Merelbeke","latitude":"50.99447","longitude":"3.74621"},{"name":"Menen","latitude":"50.79722","longitude":"3.12245"},{"name":"Meise","latitude":"50.93934","longitude":"4.32655"},{"name":"Mechelen-aan-de-Maas","latitude":"50.96589","longitude":"5.69144"},{"name":"Mechelen","latitude":"51.02574","longitude":"4.47762"},{"name":"Mariakerke","latitude":"51.07476","longitude":"3.68289"},{"name":"Marcinelle","latitude":"50.39216","longitude":"4.44388"},{"name":"Marchienne-au-Pont","latitude":"50.40573","longitude":"4.3953"},{"name":"Marche-en-Famenne","latitude":"50.22678","longitude":"5.34416"},{"name":"Manage","latitude":"50.50312","longitude":"4.23589"},{"name":"Maldegem","latitude":"51.20737","longitude":"3.44511"},{"name":"Maasmechelen","latitude":"50.96545","longitude":"5.69452"},{"name":"Maaseik","latitude":"51.09802","longitude":"5.78379"},{"name":"Louvain-la-Neuve","latitude":"50.66829","longitude":"4.61443"},{"name":"Lommel","latitude":"51.23074","longitude":"5.31349"},{"name":"Lokeren","latitude":"51.10364","longitude":"3.99339"},{"name":"Lochristi","latitude":"51.09644","longitude":"3.83194"},{"name":"Lille","latitude":"51.24197","longitude":"4.82313"},{"name":"Lier","latitude":"51.13128","longitude":"4.57041"},{"name":"Liège","latitude":"50.63373","longitude":"5.56749"},{"name":"Leuven","latitude":"50.87959","longitude":"4.70093"},{"name":"Lessines","latitude":"50.71104","longitude":"3.83579"},{"name":"Lede","latitude":"50.96626","longitude":"3.98594"},{"name":"Lebbeke","latitude":"51.00464","longitude":"4.13457"},{"name":"Lanaken","latitude":"50.89318","longitude":"5.6468"},{"name":"La Louvière","latitude":"50.48657","longitude":"4.18785"},{"name":"Kortrijk","latitude":"50.82803","longitude":"3.26487"},{"name":"Kortenberg","latitude":"50.88982","longitude":"4.54353"},{"name":"Kontich","latitude":"51.13213","longitude":"4.44706"},{"name":"Koksijde","latitude":"51.11642","longitude":"2.63772"},{"name":"Koersel","latitude":"51.05909","longitude":"5.27121"},{"name":"Koekelberg","latitude":"50.86117","longitude":"4.33136"},{"name":"Knokke-Heist","latitude":"51.35","longitude":"3.26667"},{"name":"Kessel-Lo","latitude":"50.88549","longitude":"4.73717"},{"name":"Kasterlee","latitude":"51.24118","longitude":"4.96651"},{"name":"Kapellen","latitude":"51.31377","longitude":"4.43539"},{"name":"Kalmthout","latitude":"51.38442","longitude":"4.47556"},{"name":"Jumet","latitude":"50.4422","longitude":"4.43745"},{"name":"Jette","latitude":"50.87309","longitude":"4.33419"},{"name":"Jambes","latitude":"50.45636","longitude":"4.87166"},{"name":"Izegem","latitude":"50.91396","longitude":"3.21378"},{"name":"Ixelles","latitude":"50.83333","longitude":"4.36667"},{"name":"Ieper","latitude":"50.85114","longitude":"2.88569"},{"name":"Huy","latitude":"50.51894","longitude":"5.23284"},{"name":"Houthalen","latitude":"51.03427","longitude":"5.37429"},{"name":"Hoogstraten","latitude":"51.40029","longitude":"4.76034"},{"name":"Hoboken","latitude":"51.17611","longitude":"4.34844"},{"name":"Heverlee","latitude":"50.86426","longitude":"4.69597"},{"name":"Heusy","latitude":"50.57457","longitude":"5.86618"},{"name":"Heusden","latitude":"51.03664","longitude":"5.28013"},{"name":"Herzele","latitude":"50.88681","longitude":"3.89014"},{"name":"Herve","latitude":"50.64083","longitude":"5.79353"},{"name":"Herstal","latitude":"50.66415","longitude":"5.62346"},{"name":"Herentals","latitude":"51.17655","longitude":"4.83248"},{"name":"Herent","latitude":"50.90861","longitude":"4.67056"},{"name":"Helchteren","latitude":"51.05591","longitude":"5.38244"},{"name":"Heist-op-den-Berg","latitude":"51.07537","longitude":"4.72827"},{"name":"Hasselt","latitude":"50.93106","longitude":"5.33781"},{"name":"Harelbeke","latitude":"50.85343","longitude":"3.30935"},{"name":"Hamme","latitude":"51.09822","longitude":"4.13705"},{"name":"Halle","latitude":"50.73385","longitude":"4.23454"},{"name":"Haaltert","latitude":"50.90634","longitude":"4.00093"},{"name":"Grivegnée","latitude":"50.62148","longitude":"5.61101"},{"name":"Grimbergen","latitude":"50.93409","longitude":"4.37213"},{"name":"Gilly","latitude":"50.42449","longitude":"4.4789"},{"name":"Geraardsbergen","latitude":"50.77343","longitude":"3.88223"},{"name":"Gentbrugge","latitude":"51.03692","longitude":"3.76509"},{"name":"Gent","latitude":"51.05","longitude":"3.71667"},{"name":"Genk","latitude":"50.965","longitude":"5.50082"},{"name":"Gembloux","latitude":"50.56149","longitude":"4.69889"},{"name":"Geel","latitude":"51.16557","longitude":"4.98917"},{"name":"Ganshoren","latitude":"50.87065","longitude":"4.31531"},{"name":"Frameries","latitude":"50.40578","longitude":"3.89603"},{"name":"Forest","latitude":"50.81678","longitude":"4.32775"},{"name":"Fleurus","latitude":"50.48351","longitude":"4.55006"},{"name":"Fléron","latitude":"50.61516","longitude":"5.68062"},{"name":"Flémalle-Haute","latitude":"50.59994","longitude":"5.44471"},{"name":"Evergem","latitude":"51.11306","longitude":"3.70976"},{"name":"Evere","latitude":"50.87441","longitude":"4.39905"},{"name":"Eupen","latitude":"50.6279","longitude":"6.03647"},{"name":"Etterbeek","latitude":"50.83272","longitude":"4.38835"},{"name":"Ekeren","latitude":"51.28087","longitude":"4.41813"},{"name":"Eeklo","latitude":"51.18703","longitude":"3.55654"},{"name":"Edegem","latitude":"51.15662","longitude":"4.44504"},{"name":"Duffel","latitude":"51.09554","longitude":"4.50903"},{"name":"Dour","latitude":"50.39583","longitude":"3.77792"},{"name":"Dilbeek","latitude":"50.84799","longitude":"4.25972"},{"name":"Diksmuide","latitude":"51.03248","longitude":"2.86384"},{"name":"Diest","latitude":"50.98923","longitude":"5.05062"},{"name":"Diepenbeek","latitude":"50.90769","longitude":"5.41875"},{"name":"Deurne","latitude":"51.22134","longitude":"4.46595"},{"name":"Destelbergen","latitude":"51.05952","longitude":"3.79899"},{"name":"Dendermonde","latitude":"51.02869","longitude":"4.10106"},{"name":"Denderleeuw","latitude":"50.88506","longitude":"4.07601"},{"name":"Deinze","latitude":"50.98175","longitude":"3.53096"},{"name":"Courcelles","latitude":"50.46379","longitude":"4.3747"},{"name":"Colfontaine","latitude":"50.4141","longitude":"3.85569"},{"name":"Chaudfontaine","latitude":"50.5828","longitude":"5.6341"},{"name":"Châtelineau","latitude":"50.41499","longitude":"4.52016"},{"name":"Châtelet","latitude":"50.40338","longitude":"4.52826"},{"name":"Chasse Royale","latitude":"50.42842","longitude":"3.95001"},{"name":"Charleroi","latitude":"50.41136","longitude":"4.44448"},{"name":"Brussels","latitude":"50.85045","longitude":"4.34878"},{"name":"Brugge","latitude":"51.20892","longitude":"3.22424"},{"name":"Brasschaat","latitude":"51.2912","longitude":"4.49182"},{"name":"Braine-le-Comte","latitude":"50.60979","longitude":"4.14658"},{"name":"Braine-l'Alleud","latitude":"50.68363","longitude":"4.36784"},{"name":"Boussu","latitude":"50.43417","longitude":"3.7944"},{"name":"Bornem","latitude":"51.09716","longitude":"4.24364"},{"name":"Borgerhout","latitude":"51.20957","longitude":"4.43539"},{"name":"Boom","latitude":"51.09242","longitude":"4.3717"},{"name":"Blauwput","latitude":"50.88587","longitude":"4.72415"},{"name":"Blankenberge","latitude":"51.31306","longitude":"3.13227"},{"name":"Binche","latitude":"50.41155","longitude":"4.16469"},{"name":"Bilzen","latitude":"50.87325","longitude":"5.5184"},{"name":"Beveren","latitude":"51.21187","longitude":"4.25633"},{"name":"Bevere","latitude":"50.8496","longitude":"3.5873"},{"name":"Beringen","latitude":"51.04954","longitude":"5.22606"},{"name":"Berchem-Sainte-Agathe","latitude":"50.86567","longitude":"4.29557"},{"name":"Berchem","latitude":"51.19021","longitude":"4.43264"},{"name":"Beersel","latitude":"50.76589","longitude":"4.3002"},{"name":"Beerse","latitude":"51.31927","longitude":"4.85304"},{"name":"Balen","latitude":"51.16837","longitude":"5.17027"},{"name":"Auderghem","latitude":"50.81667","longitude":"4.43333"},{"name":"Ath","latitude":"50.62937","longitude":"3.77801"},{"name":"Assebroek","latitude":"51.19367","longitude":"3.2623"},{"name":"Asse","latitude":"50.91011","longitude":"4.19836"},{"name":"Arlon","latitude":"49.68333","longitude":"5.81667"},{"name":"Antwerpen","latitude":"51.22047","longitude":"4.40026"},{"name":"Ans","latitude":"50.6623","longitude":"5.52029"},{"name":"Anderlecht","latitude":"50.83619","longitude":"4.31454"},{"name":"Andenne","latitude":"50.48941","longitude":"5.09513"},{"name":"Aarschot","latitude":"50.98715","longitude":"4.83695"},{"name":"Aalter","latitude":"51.09017","longitude":"3.44693"},{"name":"Aalst","latitude":"50.93604","longitude":"4.0355"},{"name":"Zorgo","latitude":"12.24922","longitude":"-0.61527"},{"name":"Ziniaré","latitude":"12.58186","longitude":"-1.2971"},{"name":"Zinguédéssé","latitude":"12.24661","longitude":"-1.58402"},{"name":"Zabré","latitude":"11.1825","longitude":"-0.63222"},{"name":"Yalgo","latitude":"12.93333","longitude":"-0.85"},{"name":"Yako","latitude":"12.9591","longitude":"-2.26075"},{"name":"Tougan","latitude":"13.0725","longitude":"-3.0694"},{"name":"Toma","latitude":"12.75844","longitude":"-2.89879"},{"name":"Tô","latitude":"11.44379","longitude":"-2.22548"},{"name":"Titao","latitude":"13.76667","longitude":"-2.06667"},{"name":"Tita","latitude":"11.92092","longitude":"-2.51536"},{"name":"Tenkodogo","latitude":"11.78","longitude":"-0.36972"},{"name":"Solenzo","latitude":"12.17423","longitude":"-4.08477"},{"name":"Sapouy","latitude":"11.55444","longitude":"-1.77361"},{"name":"Saonré","latitude":"12.2751","longitude":"-1.57692"},{"name":"Sabou","latitude":"12.06667","longitude":"-2.23333"},{"name":"Saaba","latitude":"12.37136","longitude":"-1.41468"},{"name":"Réo","latitude":"12.31963","longitude":"-2.47094"},{"name":"Pouytenga","latitude":"12.25162","longitude":"-0.42565"},{"name":"Pô","latitude":"11.16972","longitude":"-1.145"},{"name":"Pissila","latitude":"13.16417","longitude":"-0.8225"},{"name":"Pa","latitude":"12.66667","longitude":"-3.95"},{"name":"Ouahigouya","latitude":"13.58278","longitude":"-2.42158"},{"name":"Ouagadougou","latitude":"12.36566","longitude":"-1.53388"},{"name":"Orodara","latitude":"10.98115","longitude":"-4.91885"},{"name":"Nioko I","latitude":"12.39501","longitude":"-1.43861"},{"name":"Nouna","latitude":"12.72939","longitude":"-3.86305"},{"name":"Niangoloko","latitude":"10.28333","longitude":"-4.91667"},{"name":"Natiaboani","latitude":"11.69917","longitude":"0.50611"},{"name":"Mogtédo","latitude":"12.28444","longitude":"-0.83722"},{"name":"Manga","latitude":"11.66361","longitude":"-1.07306"},{"name":"Léo","latitude":"11.10033","longitude":"-2.10654"},{"name":"Koupéla","latitude":"12.17864","longitude":"-0.35103"},{"name":"Kouka","latitude":"13.4345","longitude":"-1.61361"},{"name":"Koudougou","latitude":"12.25263","longitude":"-2.36272"},{"name":"Korsimoro","latitude":"12.82506","longitude":"-1.06737"},{"name":"Kongoussi","latitude":"13.32583","longitude":"-1.53472"},{"name":"Kombissiri","latitude":"12.06884","longitude":"-1.33644"},{"name":"Kokologo","latitude":"12.19392","longitude":"-1.87687"},{"name":"Kindi","latitude":"12.4386","longitude":"-2.03279"},{"name":"Kaya","latitude":"13.09167","longitude":"-1.08444"},{"name":"Karankasso","latitude":"11.22191","longitude":"-4.64423"},{"name":"Houndé","latitude":"11.5","longitude":"-3.51667"},{"name":"Gourcy","latitude":"13.20776","longitude":"-2.35893"},{"name":"Gayéri","latitude":"12.64824","longitude":"0.49314"},{"name":"Garango","latitude":"11.8","longitude":"-0.55056"},{"name":"Gaoua","latitude":"10.33137","longitude":"-3.18202"},{"name":"Fara Department","latitude":"11.52941","longitude":"-2.76797"},{"name":"Fada N'gourma","latitude":"12.06157","longitude":"0.35843"},{"name":"Dori","latitude":"14.0341","longitude":"-0.03261"},{"name":"Djibo","latitude":"14.0994","longitude":"-1.62554"},{"name":"Diébougou","latitude":"10.96209","longitude":"-3.24967"},{"name":"Diapaga","latitude":"12.07305","longitude":"1.78838"},{"name":"Dédougou","latitude":"12.46338","longitude":"-3.46075"},{"name":"Dano","latitude":"11.1464","longitude":"-3.05784"},{"name":"Gomboussougou","latitude":"11.42611","longitude":"-0.77278"},{"name":"Boussé","latitude":"12.66121","longitude":"-1.89515"},{"name":"Bourzanga","latitude":"13.67806","longitude":"-1.54611"},{"name":"Boulsa","latitude":"12.66664","longitude":"-0.57469"},{"name":"Boromo","latitude":"11.74542","longitude":"-2.93006"},{"name":"Bogandé","latitude":"12.9704","longitude":"-0.14953"},{"name":"Bobo-Dioulasso","latitude":"11.17715","longitude":"-4.2979"},{"name":"Bittou","latitude":"11.25806","longitude":"-0.30611"},{"name":"Béguédo","latitude":"11.78083","longitude":"-0.73389"},{"name":"Batié","latitude":"9.88333","longitude":"-2.91667"},{"name":"Barogo","latitude":"12.55","longitude":"-0.96667"},{"name":"Banfora","latitude":"10.63333","longitude":"-4.76667"},{"name":"Bama","latitude":"12.0357","longitude":"-4.3987"},{"name":"Aribinda","latitude":"14.22963","longitude":"-0.86537"},{"name":"Mani","latitude":"13.25833","longitude":"-0.21306"},{"name":"Namponkoré","latitude":"11.73748","longitude":"1.77718"},{"name":"Cinkansé","latitude":"11.11857","longitude":"0.00993"},{"name":"Kompienga","latitude":"11.08169","longitude":"0.72365"},{"name":"Yambol","latitude":"42.48333","longitude":"26.5"},{"name":"Vratsa","latitude":"43.21","longitude":"23.5625"},{"name":"Vidin","latitude":"43.99159","longitude":"22.88236"},{"name":"Velingrad","latitude":"42.02754","longitude":"23.99155"},{"name":"Veliko Tŭrnovo","latitude":"43.08124","longitude":"25.62904"},{"name":"Varna","latitude":"43.21667","longitude":"27.91667"},{"name":"Targovishte","latitude":"43.2512","longitude":"26.57215"},{"name":"Troyan","latitude":"42.89427","longitude":"24.71589"},{"name":"Dobrich","latitude":"43.56667","longitude":"27.83333"},{"name":"Svishtov","latitude":"43.61875","longitude":"25.35033"},{"name":"Svilengrad","latitude":"41.76667","longitude":"26.2"},{"name":"Stara Zagora","latitude":"42.43278","longitude":"25.64194"},{"name":"Dupnitsa","latitude":"42.26667","longitude":"23.11667"},{"name":"Sofia","latitude":"42.69751","longitude":"23.32415"},{"name":"Smolyan","latitude":"41.57439","longitude":"24.71204"},{"name":"Sliven","latitude":"42.68583","longitude":"26.32917"},{"name":"Silistra","latitude":"44.1171","longitude":"27.26056"},{"name":"Shumen","latitude":"43.27064","longitude":"26.92286"},{"name":"Sevlievo","latitude":"43.02583","longitude":"25.11361"},{"name":"Sandanski","latitude":"41.56667","longitude":"23.28333"},{"name":"Samokov","latitude":"42.337","longitude":"23.5528"},{"name":"Ruse","latitude":"43.84872","longitude":"25.9534"},{"name":"Razgrad","latitude":"43.53333","longitude":"26.51667"},{"name":"Rakovski","latitude":"42.27408","longitude":"24.94083"},{"name":"Parvomay","latitude":"42.1","longitude":"25.21667"},{"name":"Popovo","latitude":"43.35","longitude":"26.23333"},{"name":"Plovdiv","latitude":"42.15","longitude":"24.75"},{"name":"Pleven","latitude":"43.41667","longitude":"24.61667"},{"name":"Petrich","latitude":"41.39846","longitude":"23.20702"},{"name":"Peshtera","latitude":"42.03372","longitude":"24.29995"},{"name":"Pernik","latitude":"42.6","longitude":"23.03333"},{"name":"Pazardzhik","latitude":"42.2","longitude":"24.33333"},{"name":"Panagyurishte","latitude":"42.49518","longitude":"24.19021"},{"name":"Nova Zagora","latitude":"42.48333","longitude":"26.01667"},{"name":"Montana","latitude":"43.4125","longitude":"23.225"},{"name":"Lovech","latitude":"43.13333","longitude":"24.71667"},{"name":"Lom","latitude":"43.82106","longitude":"23.23677"},{"name":"Kyustendil","latitude":"42.28389","longitude":"22.69111"},{"name":"Kardzhali","latitude":"41.65","longitude":"25.36667"},{"name":"Haskovo","latitude":"41.93415","longitude":"25.55557"},{"name":"Harmanli","latitude":"41.93333","longitude":"25.9"},{"name":"Kazanlak","latitude":"42.61667","longitude":"25.4"},{"name":"Karnobat","latitude":"42.65","longitude":"26.98333"},{"name":"Karlovo","latitude":"42.63333","longitude":"24.8"},{"name":"Gotse Delchev","latitude":"41.56667","longitude":"23.73333"},{"name":"Gorna Oryahovitsa","latitude":"43.12778","longitude":"25.70167"},{"name":"Gabrovo","latitude":"42.87472","longitude":"25.33417"},{"name":"Dimitrovgrad","latitude":"42.05","longitude":"25.6"},{"name":"Chirpan","latitude":"42.2","longitude":"25.33333"},{"name":"Burgas","latitude":"42.50606","longitude":"27.46781"},{"name":"Botevgrad","latitude":"42.9","longitude":"23.78333"},{"name":"Blagoevgrad","latitude":"42.01667","longitude":"23.1"},{"name":"Berkovitsa","latitude":"43.23581","longitude":"23.12738"},{"name":"Aytos","latitude":"42.7","longitude":"27.25"},{"name":"Asparuhovo","latitude":"43.18067","longitude":"27.88823"},{"name":"Asenovgrad","latitude":"42.01667","longitude":"24.86667"},{"name":"Sitrah","latitude":"26.15472","longitude":"50.62056"},{"name":"Madīnat ‘Īsá","latitude":"26.17361","longitude":"50.54778"},{"name":"Jidd Ḩafş","latitude":"26.21861","longitude":"50.54778"},{"name":"Madīnat Ḩamad","latitude":"26.11528","longitude":"50.50694"},{"name":"Dār Kulayb","latitude":"26.06861","longitude":"50.50389"},{"name":"Al Muharraq","latitude":"26.25722","longitude":"50.61194"},{"name":"Manama","latitude":"26.22787","longitude":"50.58565"},{"name":"Ar Rifā‘","latitude":"26.13","longitude":"50.555"},{"name":"Rumonge","latitude":"-3.9736","longitude":"29.4386"},{"name":"Gatumba","latitude":"-3.33333","longitude":"29.25"},{"name":"Bujumbura","latitude":"-3.38193","longitude":"29.36142"},{"name":"Gitega","latitude":"-3.42708","longitude":"29.92463"},{"name":"Karuzi","latitude":"-3.10139","longitude":"30.16278"},{"name":"Bubanza","latitude":"-3.0804","longitude":"29.391"},{"name":"Cibitoke","latitude":"-2.8869","longitude":"29.1248"},{"name":"Ngozi","latitude":"-2.9075","longitude":"29.8306"},{"name":"Kayanza","latitude":"-2.9221","longitude":"29.6293"},{"name":"Kirundo","latitude":"-2.5845","longitude":"30.0959"},{"name":"Zinvié","latitude":"6.61738","longitude":"2.35776"},{"name":"Zé","latitude":"6.78333","longitude":"2.3"},{"name":"Toviklin","latitude":"6.88935","longitude":"1.83722"},{"name":"Toukountouna","latitude":"10.50279","longitude":"1.37437"},{"name":"Tchaourou","latitude":"8.88649","longitude":"2.59753"},{"name":"Tanguiéta","latitude":"10.62118","longitude":"1.26651"},{"name":"Sinendé","latitude":"10.34963","longitude":"2.37906"},{"name":"Semi","latitude":"6.36667","longitude":"2.61667"},{"name":"Ségbana","latitude":"10.92821","longitude":"3.69429"},{"name":"Sé","latitude":"6.51115","longitude":"1.82831"},{"name":"Savé","latitude":"8.03424","longitude":"2.4866"},{"name":"Savalou","latitude":"7.92807","longitude":"1.97558"},{"name":"Sakété","latitude":"6.73618","longitude":"2.65866"},{"name":"Porto-Novo","latitude":"6.49646","longitude":"2.60359"},{"name":"Pobé","latitude":"6.98008","longitude":"2.6649"},{"name":"Pèrèrè","latitude":"9.79721","longitude":"2.98403"},{"name":"Péhonko","latitude":"10.22746","longitude":"2.00192"},{"name":"Parakou","latitude":"9.33716","longitude":"2.63031"},{"name":"Ouinhi","latitude":"7.08411","longitude":"2.48343"},{"name":"Ouidah","latitude":"6.36307","longitude":"2.08506"},{"name":"Ouessé","latitude":"8.48639","longitude":"2.42872"},{"name":"Nikki","latitude":"9.94009","longitude":"3.21075"},{"name":"Ndali","latitude":"9.8636","longitude":"2.72094"},{"name":"Natitingou","latitude":"10.30416","longitude":"1.37962"},{"name":"Missérété","latitude":"6.55872","longitude":"2.59063"},{"name":"Matéri","latitude":"10.69623","longitude":"1.06307"},{"name":"Malanville","latitude":"11.86819","longitude":"3.38327"},{"name":"Lokossa","latitude":"6.63869","longitude":"1.71674"},{"name":"Kouandé","latitude":"6.4","longitude":"2.06667"},{"name":"Kétou","latitude":"7.36332","longitude":"2.59978"},{"name":"Kérou","latitude":"10.82578","longitude":"2.10479"},{"name":"Kandi","latitude":"11.13417","longitude":"2.93861"},{"name":"Kalalé","latitude":"10.29275","longitude":"3.38367"},{"name":"Godomè","latitude":"6.38948","longitude":"2.34581"},{"name":"Glazoué","latitude":"7.97252","longitude":"2.22176"},{"name":"Ekpé","latitude":"6.39209","longitude":"2.53725"},{"name":"Dogbo","latitude":"6.79911","longitude":"1.78073"},{"name":"Djougou","latitude":"9.70853","longitude":"1.66598"},{"name":"Djidja","latitude":"7.34436","longitude":"1.93447"},{"name":"Djakotomé","latitude":"6.8991","longitude":"1.71618"},{"name":"Dassa-Zoumé","latitude":"7.75","longitude":"2.18333"},{"name":"Cové","latitude":"7.22097","longitude":"2.34017"},{"name":"Cotonou","latitude":"6.36536","longitude":"2.41833"},{"name":"Kopargo","latitude":"9.84108","longitude":"1.54231"},{"name":"Comé","latitude":"6.40764","longitude":"1.88198"},{"name":"Boukoumbé","latitude":"10.17711","longitude":"1.10621"},{"name":"Bohicon","latitude":"7.17826","longitude":"2.0667"},{"name":"Bembèrèkè","latitude":"10.22827","longitude":"2.66335"},{"name":"Bassila","latitude":"9.00814","longitude":"1.6654"},{"name":"Banté","latitude":"8.41221","longitude":"1.88969"},{"name":"Banikoara","latitude":"11.29845","longitude":"2.43856"},{"name":"Banigbé","latitude":"6.64756","longitude":"2.70695"},{"name":"Avrankou","latitude":"6.55591","longitude":"2.65123"},{"name":"Athiémé","latitude":"6.5808","longitude":"1.6696"},{"name":"Aplahoué","latitude":"6.93333","longitude":"1.68333"},{"name":"Allada","latitude":"6.66547","longitude":"2.15138"},{"name":"Adjarra","latitude":"6.53445","longitude":"2.66833"},{"name":"Adjaouèrè","latitude":"7.00228","longitude":"2.60591"},{"name":"Abomey-Calavi","latitude":"6.44852","longitude":"2.35566"},{"name":"Abomey","latitude":"7.18286","longitude":"1.99119"},{"name":"Ouaké","latitude":"9.66167","longitude":"1.38472"},{"name":"Cobly","latitude":"10.49222","longitude":"0.99972"},{"name":"Klouékanmè","latitude":"6.98028","longitude":"1.84222"},{"name":"Kpozoun","latitude":"7.22868","longitude":"2.21317"},{"name":"Gustavia","latitude":"17.89618","longitude":"-62.84978"},{"name":"Hamilton","latitude":"32.2949","longitude":"-64.78303"},{"name":"Tutong","latitude":"4.80278","longitude":"114.64917"},{"name":"Seria","latitude":"4.60637","longitude":"114.32476"},{"name":"Kuala Belait","latitude":"4.58361","longitude":"114.2312"},{"name":"Bandar Seri Begawan","latitude":"4.89035","longitude":"114.94006"},{"name":"Yacuiba","latitude":"-22.01643","longitude":"-63.67753"},{"name":"Warnes","latitude":"-17.5163","longitude":"-63.16778"},{"name":"Vinto","latitude":"-17.39141","longitude":"-66.31681"},{"name":"Villazón","latitude":"-22.08659","longitude":"-65.59422"},{"name":"Villa Yapacaní","latitude":"-17.4","longitude":"-63.83333"},{"name":"Villamontes","latitude":"-21.26235","longitude":"-63.46903"},{"name":"Viacha","latitude":"-16.65","longitude":"-68.3"},{"name":"Tupiza","latitude":"-21.44345","longitude":"-65.71875"},{"name":"Trinidad","latitude":"-14.83333","longitude":"-64.9"},{"name":"Tiquipaya","latitude":"-17.33801","longitude":"-66.21579"},{"name":"Tarija","latitude":"-21.53549","longitude":"-64.72956"},{"name":"Sucre","latitude":"-19.03332","longitude":"-65.26274"},{"name":"Sipe Sipe","latitude":"-17.45419","longitude":"-66.35737"},{"name":"El Torno","latitude":"-18.00014","longitude":"-63.38712"},{"name":"Santa Cruz de la Sierra","latitude":"-17.78629","longitude":"-63.18117"},{"name":"San Ignacio de Velasco","latitude":"-16.37767","longitude":"-60.96472"},{"name":"Sacaba","latitude":"-17.39799","longitude":"-66.03825"},{"name":"Riberalta","latitude":"-11.01026","longitude":"-66.05257"},{"name":"Quillacollo","latitude":"-17.39228","longitude":"-66.27838"},{"name":"Punata","latitude":"-17.54234","longitude":"-65.83472"},{"name":"Potosí","latitude":"-19.58361","longitude":"-65.75306"},{"name":"Oruro","latitude":"-17.98333","longitude":"-67.15"},{"name":"Montero","latitude":"-17.33874","longitude":"-63.25093"},{"name":"Mizque","latitude":"-17.94101","longitude":"-65.34016"},{"name":"Llallagua","latitude":"-18.42494","longitude":"-66.57778"},{"name":"La Paz","latitude":"-16.5","longitude":"-68.15"},{"name":"Laja","latitude":"-16.53333","longitude":"-68.38333"},{"name":"Huanuni","latitude":"-18.289","longitude":"-66.83583"},{"name":"Guayaramerín","latitude":"-10.8258","longitude":"-65.3581"},{"name":"Cotoca","latitude":"-17.81667","longitude":"-63.05"},{"name":"Colcapirhua","latitude":"-17.3857","longitude":"-66.23814"},{"name":"Cochabamba","latitude":"-17.3895","longitude":"-66.1568"},{"name":"Cobija","latitude":"-11.02671","longitude":"-68.76918"},{"name":"Caranavi","latitude":"-15.83403","longitude":"-67.56586"},{"name":"Camiri","latitude":"-20.04063","longitude":"-63.52396"},{"name":"Bermejo","latitude":"-22.73206","longitude":"-64.33724"},{"name":"Achocalla","latitude":"-16.57386","longitude":"-68.15112"},{"name":"Ascención de Guarayos","latitude":"-15.89299","longitude":"-63.18855"},{"name":"San Borja","latitude":"-14.85195","longitude":"-66.74954"},{"name":"Kralendijk","latitude":"12.15","longitude":"-68.26667"},{"name":"Vitória do Mearim","latitude":"-3.46222","longitude":"-44.87056"},{"name":"Vitória de Santo Antão","latitude":"-8.11806","longitude":"-35.29139"},{"name":"Viseu","latitude":"-1.19667","longitude":"-46.14"},{"name":"Conde","latitude":"-7.25972","longitude":"-34.9075"},{"name":"Vigia","latitude":"-0.85833","longitude":"-48.14167"},{"name":"Viçosa do Ceará","latitude":"-3.56222","longitude":"-41.09222"},{"name":"Viçosa","latitude":"-9.37139","longitude":"-36.24083"},{"name":"Viana","latitude":"-3.22028","longitude":"-45.00361"},{"name":"Várzea Alegre","latitude":"-5.35","longitude":"-40.38333"},{"name":"Varjota","latitude":"-4.19444","longitude":"-40.47667"},{"name":"Vargem Grande","latitude":"-3.54306","longitude":"-43.91583"},{"name":"Valença do Piauí","latitude":"-6.4075","longitude":"-41.74556"},{"name":"União dos Palmares","latitude":"-9.16278","longitude":"-36.03194"},{"name":"União","latitude":"-4.58583","longitude":"-42.86417"},{"name":"Tuntum","latitude":"-5.25806","longitude":"-44.64889"},{"name":"Tucuruí","latitude":"-3.76585","longitude":"-49.67923"},{"name":"Tucumã","latitude":"-0.18333","longitude":"-50.05"},{"name":"Trindade","latitude":"-7.76194","longitude":"-40.26778"},{"name":"Trairi","latitude":"-3.27778","longitude":"-39.26889"},{"name":"Toritama","latitude":"-8.00667","longitude":"-36.05667"},{"name":"Tomé Açu","latitude":"-2.41889","longitude":"-48.15222"},{"name":"Timon","latitude":"-5.09417","longitude":"-42.83667"},{"name":"Timbiras","latitude":"-4.25528","longitude":"-43.94056"},{"name":"Timbaúba","latitude":"-7.50528","longitude":"-35.31833"},{"name":"Tianguá","latitude":"-3.73222","longitude":"-40.99167"},{"name":"Teresina","latitude":"-5.08917","longitude":"-42.80194"},{"name":"São João dos Inhamuns","latitude":"-6","longitude":"-40.28333"},{"name":"Tamandaré","latitude":"-8.75632","longitude":"-35.09995"},{"name":"Tabira","latitude":"-7.59083","longitude":"-37.53944"},{"name":"Surubim","latitude":"-7.83306","longitude":"-35.75472"},{"name":"Sousa","latitude":"-6.75917","longitude":"-38.22806"},{"name":"Soure","latitude":"-0.71667","longitude":"-48.52333"},{"name":"Solânea","latitude":"-6.755","longitude":"-35.54"},{"name":"Sobral","latitude":"-3.68611","longitude":"-40.34972"},{"name":"Sirinhaém","latitude":"-8.59083","longitude":"-35.11611"},{"name":"Sertânia","latitude":"-8.07361","longitude":"-37.26444"},{"name":"Serra Talhada","latitude":"-7.99194","longitude":"-38.29833"},{"name":"Senador Pompeu","latitude":"-5.58806","longitude":"-39.37167"},{"name":"Satuba","latitude":"-9.56333","longitude":"-35.82444"},{"name":"São Raimundo Nonato","latitude":"-9.01528","longitude":"-42.69944"},{"name":"São Miguel dos Campos","latitude":"-9.78111","longitude":"-36.09361"},{"name":"São Miguel do Guamá","latitude":"-1.62667","longitude":"-47.48333"},{"name":"São Mateus do Maranhão","latitude":"-4.04167","longitude":"-44.475"},{"name":"São Luís do Quitunde","latitude":"-9.31833","longitude":"-35.56111"},{"name":"São Luís","latitude":"-2.52972","longitude":"-44.30278"},{"name":"São Lourenço da Mata","latitude":"-8.00222","longitude":"-35.01833"},{"name":"São José do Egito","latitude":"-7.47889","longitude":"-37.27444"},{"name":"São José de Ribamar","latitude":"-2.55572","longitude":"-44.05992"},{"name":"São José de Mipibu","latitude":"-6.07472","longitude":"-35.23778"},{"name":"São João dos Patos","latitude":"-6.495","longitude":"-43.70222"},{"name":"São Gonçalo do Amarante","latitude":"-3.60722","longitude":"-38.96833"},{"name":"São Félix do Xingu","latitude":"-6.64472","longitude":"-51.995"},{"name":"São Domingos do Maranhão","latitude":"-5.57583","longitude":"-44.38528"},{"name":"São Bento","latitude":"-6.28333","longitude":"-37.75"},{"name":"São Bento","latitude":"-2.69583","longitude":"-44.82139"},{"name":"Santa Rita","latitude":"-7.11389","longitude":"-34.97806"},{"name":"Santarém","latitude":"-2.44306","longitude":"-54.70833"},{"name":"Santa Quitéria do Maranhão","latitude":"-3.51556","longitude":"-42.54667"},{"name":"Santa Quitéria","latitude":"-4.33194","longitude":"-40.15667"},{"name":"Santana do Ipanema","latitude":"-9.37833","longitude":"-37.24528"},{"name":"Santa Luzia","latitude":"-7.64265","longitude":"-47.21738"},{"name":"Santa Inês","latitude":"-3.66667","longitude":"-45.38"},{"name":"Santa Helena","latitude":"-2.23111","longitude":"-45.3"},{"name":"Santa Cruz do Capibaribe","latitude":"-7.9575","longitude":"-36.20472"},{"name":"Santa Cruz","latitude":"-6.22944","longitude":"-36.02278"},{"name":"Salinópolis","latitude":"-0.62099","longitude":"-47.35422"},{"name":"Salgueiro","latitude":"-8.07417","longitude":"-39.11917"},{"name":"Russas","latitude":"-4.94028","longitude":"-37.97583"},{"name":"Rio Largo","latitude":"-9.47833","longitude":"-35.85333"},{"name":"Rio Formoso","latitude":"-8.66877","longitude":"-35.16277"},{"name":"Ribeirão","latitude":"-8.51444","longitude":"-35.37778"},